OBJECTID,StaType,StnType,ZipCode,State,City,Address2,Address1,Name,Code,StationName,StationFacilityName,StationAliases,DateModif,lon,lat,x,y
1,Station Building (with waiting room),BUS,48801,MI,Alma, ,1105 Willow Run Drive, ,AAM,"Alma, MI", , ,2018-09-27T04:04:47,-84.644832,43.39172,-84.6448319998007,43.3917199998474
2,Curbside Bus Stop only (no shelter),BUS,12211,NY,Albany, ,737 Albany Shaker Road,Albany Intl Airport,ABA,"Albany, NY",Albany Intl Airport, ,2018-09-27T07:04:38,-73.809184,42.744491,-73.8091839995775,42.744490999718
3,Curbside Bus Stop only (no shelter),BUS,54421,WI,Colby, ,1210 North Division St., ,ABB,"Abbotsford-Colby, WI", ,Colby,2018-09-28T07:04:39,-90.314667,44.928553,-90.3146669999634,44.9285529998045
4,Station Building (with waiting room),TRAIN,21001,MD,Aberdeen, ,18 East Bel Air Avenue, ,ABE,"Aberdeen, MD", , ,2018-09-14T07:04:39,-76.16326,39.508447,-76.1632600003979,39.5084469997505
5,Platform with Shelter,TRAIN,08201,NJ,Absecon, ,Shore Road and Ohio Avenue, ,ABN,"Absecon, NJ", , ,2018-09-27T04:04:48,-74.501475,39.424041,-74.5014749995706,39.4240410002761
6,Station Building (with waiting room),TRAIN,87102,NM,Albuquerque, ,320 1st Street SW, ,ABQ,"Albuquerque, NM", , ,2018-09-29T07:04:38,-106.647975,35.082061,-106.647974999697,35.0820610001874
7,Platform with Shelter,TRAIN,94509,CA,Antioch, ,100 I Street, ,ACA,"Antioch-Pittsburg, CA", ,Pittsburg,2017-11-06T07:04:20,-121.816024,38.0177,-121.81602399963,38.0177000001836
8,Station Building (with waiting room),BUS,08401,NJ,Atlantic City, ,1901 Atlantic Avenue, ,ACB,"Atlantic City, NJ", , ,2018-04-13T07:04:13,-74.434793,39.359556,-74.4347930003349,39.3595559997725
9,Station Building (with waiting room),TRAIN,63621,MO,Arcadia, ,13700 Highway 21, ,ACD,"Arcadia, MO", , ,2018-09-29T07:04:39,-90.624403,37.592161,-90.6244029999604,37.5921610002709
10,Station Building (with waiting room),TRAIN,08401,NJ,Atlantic City, ,1 Atlantic City Expressway, ,ACY,"Atlantic City, NJ", , ,2018-09-27T07:04:38,-74.439903,39.362689,-74.4399030003532,39.3626889997184
11,Platform only (no shelter),TRAIN,73401,OK,Ardmore, ,251 East Main Street, ,ADM,"Ardmore, OK", , ,2024-06-09T02:00:00,-97.12551,34.172465,-97.1255099996676,34.172464999671
12,Curbside Bus Stop only (no shelter),BUS,04330,ME,Augusta, ,9 Industrial Drive, ,AGM,"Augusta, ME", , ,2018-09-26T04:04:47,-69.799133,44.355913,-69.7991330002517,44.3559130002942
13,Curbside Bus Stop only (no shelter),BUS,97520,OR,Ashland, ,499 Stadium Street,Southern Oregon University,AHL,"Ashland, OR",Southern Oregon University, ,2018-09-20T09:56:28,-122.689591,42.185744,-122.689591000404,42.1857440000005
14,Platform with Shelter,TRAIN,41101,KY,Ashland, ,99 15th Street, ,AKY,"Ashland, KY", , ,2017-11-06T07:04:22,-82.639603,38.480875,-82.6396029998358,38.4808749997119
15,Curbside Bus Stop only (no shelter),BUS,49706,MI,Alanson, ,7640 Burr Avenue, ,ALA,"Alanson, MI", , ,2018-09-27T04:04:48,-84.790596,45.440201,-84.790596000196,45.440201000083
16,Station Building (with waiting room),TRAIN,12144,NY,Rensselaer, ,525 East Street, ,ALB,"Albany-Rensselaer, NY", , ,2018-09-14T07:04:40,-73.741147,42.641029,-73.7411470004318,42.6410289996868
17,Platform only (no shelter),TRAIN,44601,OH,Alliance, ,820 East Main Street, ,ALC,"Alliance, OH", , ,2017-11-12T04:04:31,-81.092904,40.921275,-81.0929039997501,40.921274999694
18,Platform with Shelter,TRAIN,24910,WV,Alderson, ,1 C&O Plaza on Railroad Avenue, ,ALD,"Alderson, WV", , ,2017-11-12T04:04:31,-80.644856,37.724277,-80.6448559998484,37.724277000221
19,Station Building (with waiting room),TRAIN,49224,MI,Albion, ,300 North Eaton Street, ,ALI,"Albion, MI", , ,2017-11-12T04:04:31,-84.755814,42.247196,-84.7558139995562,42.2471960002192
20,Curbside Bus Stop only (no shelter),BUS,49707,MI,Alpena, ,1180 Michigan Highway 32 West, ,ALM,"Alpena, MI", , ,2018-09-27T04:04:48,-83.476459,45.062202,-83.4764589999499,45.0622020000182
21,Station Building (with waiting room),TRAIN,62002,IL,Alton, ,1 Golf Road, ,ALN,"Alton, IL", , ,2018-09-28T04:04:46,-90.157298,38.921007,-90.1572980003825,38.9210069997477
22,Station Building (with waiting room),TRAIN,79830,TX,Alpine, ,102 West Holland Avenue, ,ALP,"Alpine, TX", , ,2021-01-22T04:04:26,-103.661513,30.357302,-103.661512999818,30.357302000043
23,Station Building (with waiting room),TRAIN,16601,PA,Altoona, ,1231 11th Avenue, ,ALT,"Altoona, PA", , ,2017-11-12T04:04:33,-78.40162,40.514475,-78.4016200002899,40.5144749999404
24,Station Building (with waiting room),TRAIN,22301,VA,Alexandria, ,110 Callahan Drive, ,ALX,"Alexandria, VA", , ,2017-11-06T07:04:23,-77.06233,38.806503,-77.0623299996118,38.8065030003071
25,Station Building (with waiting room),TRAIN,97321,OR,Albany, ,110 10th Avenue SW, ,ALY,"Albany, OR", , ,2017-11-12T04:04:33,-123.102774,44.630464,-123.102773999825,44.6304639998386
26,Station Building (with waiting room),TRAIN,12010,NY,Amsterdam, ,466 West Main Street, ,AMS,"Amsterdam, NY", , ,2018-09-14T04:04:44,-74.2195,42.953719,-74.2194999997182,42.953718999821
27,Station Building (with waiting room),TRAIN,92806,CA,Anaheim, ,2626 East Katella Avenue, ,ANA,"Anaheim, CA", , ,2018-09-22T04:04:46,-117.877308,33.803803,-117.877307999624,33.8038030002316
28,Curbside Bus Stop only (no shelter),BUS,81210,CO,Almont, ,10366-10486 CO-135, ,ANT,"Almont, CO", , ,2022-09-13T07:04:28,-106.845967,38.665671,-106.845967000405,38.6656709998743
29,Station Building (with waiting room),BUS,54911,WI,Appleton, ,100 East Washington Street, ,APP,"Appleton, WI", , ,2018-09-28T04:04:46,-88.405852,44.263311,-88.4058520001302,44.2633109997632
30,Station Building (with waiting room),TRAIN,48104,MI,Ann Arbor, ,325 Depot Street, ,ARB,"Ann Arbor, MI", , ,2017-11-12T04:04:35,-83.743154,42.287692,-83.7431539999758,42.287691999915
31,Curbside Bus Stop only (no shelter),BUS,95521,CA,Arcata, ,925 E Street,Transit Center,ARC,"Arcata, CA",Transit Center,"Humboldt State University,McKinleyville",2021-08-13T02:03:59,-124.083805,40.868633,-124.083805000073,40.8686329997932
32,Station Building (with waiting room),TRAIN,19003,PA,Ardmore, ,39 Station Avenue, ,ARD,"Ardmore, PA", , ,2017-11-12T04:04:35,-75.290399,40.008278,-75.2903989999785,40.0082779997903
33,Station Building (with waiting room),TRAIN,71923,AR,Arkadelphia, ,798 South 5th Street, ,ARK,"Arkadelphia, AR", , ,2017-11-12T04:04:35,-93.053284,34.113919,-93.0532839998035,34.1139189999375
34,Platform with Shelter,TRAIN,95603,CA,Auburn, ,277 Nevada Street, ,ARN,"Auburn, CA", , ,2018-09-14T04:04:44,-121.083187,38.903638,-121.083187000299,38.9036379999543
35,Curbside Bus Stop only (no shelter),BUS,97103,OR,Astoria, ,900 Marine Drive, ,ART,"Astoria, OR", , ,2018-09-27T07:04:39,-123.83329,46.19021,-123.833290000397,46.1902099997995
36,Platform with Shelter,TRAIN,23005,VA,Ashland, ,112 North Railroad Avenue, ,ASD,"Ashland, VA", , ,2017-11-12T04:04:36,-77.481304,37.759596,-77.4813040001902,37.7595959997539
37,Station Building (with waiting room),TRAIN,L7T 4A8,ON,Aldershot, ,1199 Waterdown Road, ,AST,"Aldershot, ON", , ,2017-11-06T07:04:25,-79.855712,43.313413,-79.8557120002308,43.3134130000199
38,Curbside Bus Stop only (no shelter),BUS,93422,CA,Atascadero, ,6000 Capistrano Avenue, ,ATA,"Atascadero, CA", , ,2018-09-21T04:04:44,-120.66476,35.488953,-120.664760000067,35.4889529997471
39,Station Building (with waiting room),TRAIN,30309,GA,Atlanta, ,"1688 Peachtree Street, NW", ,ATL,"Atlanta, GA", ,Peachtree,2018-09-29T07:04:39,-84.392477,33.799445,-84.3924769997929,33.799445000328
40,Station Building (with waiting room),TRAIN,36201,AL,Anniston, ,126 West 4th Street, ,ATN,"Anniston, AL", , ,2017-11-12T04:04:37,-85.832145,33.649112,-85.8321450000501,33.6491120001369
41,Platform with Shelter,TRAIN,08004,NJ,Atco, ,Cooper Road and Raritan Avenue, ,ATO,"Atco, NJ", , ,2018-09-27T04:04:49,-74.907893,39.783504,-74.9078930003861,39.7835040001404
42,Station Building (with waiting room),BUS,04210,ME,Auburn, ,1707 S. Washington Street, ,AUR,"Auburn, ME", ,Lewiston,2020-11-18T04:04:16,-70.266407,44.037697,-70.266406999884,44.0376970003
43,Station Building (with waiting room),TRAIN,78703,TX,Austin, ,250 North Lamar Boulevard, ,AUS,"Austin, TX", , ,2017-11-06T07:04:26,-97.75694,30.269449,-97.7569399999228,30.2694490003796
44,Station Building (with waiting room),BUS,18101,PA,Allentown, ,110 N 6th Street, ,AWN,"Allentown, PA", ,Lehigh University,2023-02-01T02:06:32,-75.471521,40.60405,-75.4715209998756,40.6040499999145
45,Station Building (with waiting room),BUS,97814,OR,Baker City, ,515 Campbell Street, ,BAK,"Baker City, OR", , ,2018-09-27T04:04:49,-117.813137,44.781551,-117.813137000016,44.7815509998536
46,Station Building (with waiting room),TRAIN,21201,MD,Baltimore, ,1500 North Charles Street,Penn Station,BAL,"Baltimore, MD",Penn Station,Penn Station,2018-09-14T07:04:40,-76.615688,39.307302,-76.6156879996737,39.3073020001803
47,Station Building (with waiting room),TRAIN,49013,MI,Bangor, ,541 Railroad Street, ,BAM,"Bangor, MI", , ,2017-11-12T04:04:40,-86.111646,42.314519,-86.1116460000841,42.3145190003087
48,Station Building (with waiting room),BUS,04401,ME,Bangor, ,1039 Union Street, ,BAN,"Bangor, ME", , ,2018-09-26T04:04:47,-68.808747,44.816614,-68.8087470003307,44.8166139997573
49,Platform with Shelter,TRAIN,92311,CA,Barstow, ,685 North First Avenue,Harvey House Rail Depot,BAR,"Barstow, CA",Harvey House Rail Depot, ,2019-02-14T04:03:14,-117.025435,34.90482,-117.025435000347,34.9048200003163
50,Station Building (with waiting room),TRAIN,91502,CA,Burbank, ,201 North Front Street,Downtown,BBK,"Burbank, CA",Downtown, ,2024-08-18T02:00:00,-118.2999,34.171299,-118.299900000043,34.1712990001569
51,Curbside Bus Stop only (no shelter),BUS,92311,CA,Barstow, ,1611 East Main St,McDonald's restaurant,BBS,"Barstow, CA",McDonald's restaurant, ,2021-12-01T02:04:10,-116.998434,34.891277,-116.998434000086,34.8912770002618
52,Station Building (with waiting room),TRAIN,02116,MA,Boston, ,145 Dartmouth Street,Back Bay Station,BBY,"Boston, MA",Back Bay Station,"Boston,Back Bay,westwood",2018-12-13T07:03:24,-71.075828,42.347317,-71.0758280002668,42.3473170002121
53,Curbside Bus Stop only (no shelter),BUS,97720,OR,Buchanan, ,42456 U.S. Highway 20, ,BCH,"Buchanan, OR", , ,2018-06-15T07:04:17,-118.628407,43.642314,-118.628407000384,43.6423140001178
54,Platform with Shelter,TRAIN,22015,VA,Burke, ,10399 Premier Court, ,BCV,"Burke Centre, VA", , ,2018-09-14T07:04:41,-77.29879,38.797271,-77.2987899996749,38.7972709999599
55,Station Building (with waiting room),BUS,48708,MI,Bay City, ,1124 Washington Avenue, ,BCY,"Bay City, MI", , ,2018-09-27T04:04:50,-83.886922,43.601847,-83.8869220004037,43.6018470000167
56,Curbside Bus Stop only (no shelter),BUS,05733,VT,Brandon, ,20 Park Street, ,BDN,"Brandon, VT", , ,2021-06-25T07:04:13,-73.08709,43.798342,-73.08709000034,43.7983420003239
57,Curbside Bus Stop only (no shelter),BUS,34212,FL,Bradenton, ,8100 FL-64, ,BDT,"Bradenton-Ellenton, FL", ,Ellenton,2023-01-03T12:18:52,-82.457451,27.48585,-82.4574509997188,27.4858500002324
58,Curbside Bus Stop only (no shelter),BUS,54107,WI,Bonduel, ,102 Express Way, ,BDU,"Bonduel, WI", , ,2022-03-10T07:04:01,-88.446964,44.729865,-88.4469640000809,44.7298649999342
59,Station Building (with waiting room),TRAIN,98225,WA,Bellingham, ,401 Harris Avenue, ,BEL,"Bellingham, WA", , ,2017-11-12T04:04:42,-122.511255,48.720263,-122.511254999597,48.7202629998968
60,Platform with Shelter,TRAIN,85602,AZ,Benson, ,105 East 4th Street, ,BEN,"Benson, AZ", , ,2017-11-12T04:04:43,-110.296904,31.968758,-110.296904000408,31.9687580003128
61,Platform with Shelter,TRAIN,06037,CT,Berlin, ,51 Depot Road, ,BER,"Berlin, CT", , ,2018-06-15T07:04:17,-72.765274,41.635595,-72.765273999883,41.635595000112
62,Curbside Bus Stop only (no shelter),BUS,61080,IL,South Beloit, ,15766 Manchester Road, ,BET,"South Beloit, IL", , ,2018-09-26T04:04:48,-88.989116,42.490067,-88.9891160003274,42.4900670000468
63,Station Building (with waiting room),TRAIN,93301,CA,Bakersfield, ,601 Truxtun Avenue, ,BFD,"Bakersfield, CA", , ,2018-09-14T04:04:45,-119.00821,35.37214,-119.00820999983,35.3721399998409
64,Curbside Bus Stop only (no shelter),BUS,04915,ME,Belfast, ,22 Belmont Avenue, ,BFT,"Belfast, ME", , ,2018-09-26T04:04:48,-69.025984,44.422692,-69.0259840001379,44.4226919998458
65,Curbside Bus Stop only (no shelter),BUS,82834,WY,Buffalo, ,75 North Bypass Road, ,BFW,"Buffalo, WY", , ,2024-06-06T02:00:00,-106.69015,44.35507,-106.690150000377,44.3550700001811
66,Station Building (with waiting room),TRAIN,14203,NY,Buffalo, ,75 Exchange Street,Exchange Street Station,BFX,"Buffalo, NY",Exchange Street Station,Exchange,2019-02-14T07:03:18,-78.873748,42.878449,-78.8737479998475,42.8784489998228
67,Curbside Bus Stop only (no shelter),BUS,49307,MI,Big Rapids, ,14219 Northland Drive, ,BGP,"Big Rapids, MI", , ,2018-09-27T04:04:50,-85.483612,43.673347,-85.4836119999122,43.6733469998678
68,Station Building (with waiting room),TRAIN,35203,AL,Birmingham, ,1801 Morris Avenue, ,BHM,"Birmingham, AL", , ,2018-09-15T04:04:45,-86.807023,33.512937,-86.8070229996408,33.5129369997435
69,Curbside Bus Stop only (no shelter),BUS,97712,OR,Brothers, ,34100 U.S. Highway 20, ,BHS,"Brothers, OR", , ,2018-06-15T07:04:17,-120.603551,43.814035,-120.603551000174,43.814034999892
70,Curbside Bus Stop only (no shelter),BUS,03570,NH,Berlin, ,318 Glen Avenue, ,BIN,"Berlin, NH", , ,2018-09-27T04:04:51,-71.18743,44.45904,-71.1874300001634,44.4590399999647
71,Curbside Bus Stop only (no shelter),BUS,15715,PA,Big Run, ,401 East Main Street, ,BIR,"Big Run, PA", , ,2018-07-20T07:04:38,-78.870218,40.968716,-78.8702179998699,40.9687160000346
72,Station Building (with waiting room),BUS,97415,OR,Brookings, ,Highway 101 & 5th Street, ,BKO,"Brookings, OR", , ,2018-09-27T04:04:51,-124.288311,42.054793,-124.288311000215,42.0547929998353
73,Curbside Bus Stop only (no shelter),BUS,97106,OR,Banks, ,118 Sunset Avenue, ,BKS,"Banks, OR", , ,2020-07-08T14:48:43,-123.114035,45.617864,-123.114034999953,45.61786400006
74,Platform with Shelter,TRAIN,94710,CA,Berkeley, ,700 University Avenue, ,BKY,"Berkeley, CA", , ,2018-09-14T04:04:45,-122.300707,37.867254,-122.300707000024,37.8672539998717
75,Station Building (with waiting room),TRAIN,05101,VT,Bellows Falls, ,54 Depot Street, ,BLF,"Bellows Falls, VT", , ,2017-11-12T04:04:46,-72.444597,43.13654,-72.4445970003242,43.1365400001462
76,Curbside Bus Stop only (no shelter),BUS,24061,VA,Blacksburg, ,250 Perry St,Virginia Tech,BLK,"Blacksburg, VA",Virginia Tech,Virginia Tech,2024-09-02T07:00:00,-80.424583,37.232013,-80.4245829998081,37.2320129998075
77,Curbside Bus Stop only (no shelter),BUS,15717,PA,Blairsville, ,1601 Old William Penn Highway, ,BLS,"Blairsville, PA", , ,2018-07-19T07:04:40,-79.219778,40.444688,-79.2197779998547,40.4446880002306
78,Station Building (with waiting room),BUS,05446,VT,Burlington, ,125 Pearl Street,Downtown Transit Center,BLT,"Burlington, VT",Downtown Transit Center, ,2021-10-21T07:04:21,-73.214168,44.480327,-73.2141679998816,44.4803269998944
79,Platform with Shelter,TRAIN,77704,TX,Beaumont, ,2555 West Cedar Street, ,BMT,"Beaumont, TX", , ,2017-11-12T04:04:47,-94.127367,30.076458,-94.127367000435,30.0764579999463
80,Station Building (with waiting room),TRAIN,27217,NC,Burlington, ,101 North Main Street, ,BNC,"Burlington, NC", , ,2017-11-12T04:04:47,-79.434531,36.094225,-79.4345309997979,36.0942249996495
81,Station Building (with waiting room),BUS,97701,OR,Bend, ,334 Hawthorne Avenue, ,BND,"Bend, OR", , ,2024-05-29T02:06:52,-121.301266,44.05822,-121.301266000005,44.058220000002
82,Station Building (with waiting room),TRAIN,06405,CT,Branford, ,39 Maple Street, ,BNF,"Branford, CT", , ,2024-08-18T02:00:03,-72.81635,41.274677,-72.8163499997773,41.2746769998737
83,Platform with Shelter,TRAIN,98605,WA,Bingen, ,Highway 14 and Walnut Street, ,BNG,"Bingen-White Salmon, WA", ,"White Salmon,Hood River,Dalles,The Dalles",2017-11-06T07:04:31,-121.46873,45.71502,-121.468729999949,45.7150200001772
84,Curbside Bus Stop only (no shelter),BUS,05201,VT,Bennington, ,215 Pleasant Street,Green Mountain Express Bus Term,BNI,"Bennington, VT",Green Mountain Express Bus Term, ,2019-03-18T07:03:26,-73.19324,42.878777,-73.1932399999114,42.8787769997076
85,Station Building (with waiting room),TRAIN,61761,IL,Normal, ,11 Uptown Circle, ,BNL,"Bloomington-Normal, IL", , ,2018-09-29T07:04:39,-88.984306,40.50901,-88.9843059998847,40.5090100002628
86,Curbside Bus Stop only (no shelter),BUS,97720,OR,Burns, ,230 Hines Boulevard, ,BNS,"Burns, OR", , ,2018-06-14T04:04:22,-119.064431,43.583713,-119.064430999902,43.5837129997919
87,Station Building (with waiting room),BUS,83705,ID,Boise, ,3201 Airport Way, ,BOI,"Boise, ID", , ,2024-07-20T02:00:02,-116.222172,43.569556,-116.222171999746,43.569556000298
88,Station Building (with waiting room),TRAIN,02114,MA,Boston, ,135 Causeway Street,North Station,BON,"Boston, MA",North Station,North Station,2018-12-13T07:03:25,-71.061122,42.366235,-71.0611219996524,42.3662349998855
89,Station Building (with waiting room),TRAIN,02110,MA,Boston, ,2 South Station,South Station,BOS,"Boston, MA",South Station,South Station,2020-10-27T07:03:54,-71.055304,42.352311,-71.0553039996294,42.3523110001276
90,Station Building (with waiting room),TRAIN,05301,VT,Brattleboro, ,10 Vernon Road, ,BRA,"Brattleboro, VT", , ,2017-11-06T07:04:32,-72.556497,42.850849,-72.5564970001466,42.8508490003244
91,Curbside Bus Stop only (no shelter),BUS,53913,WI,Baraboo, ,Commerce Parkway & Gateway Drive, ,BRB,"Baraboo, WI", , ,2022-03-16T07:04:11,-89.773676,43.459349,-89.7736760003564,43.4593490002563
92,Station Building (with waiting room),TRAIN,39601,MS,Brookhaven, ,440 North Railroad Avenue, ,BRH,"Brookhaven, MS", , ,2018-09-14T04:04:46,-90.44107,31.582961,-90.4410700000107,31.5829610001117
93,Platform only (no shelter),BUS,02809,RI,Bristol, ,147 Thames Street, ,BRI,"Bristol, RI", , ,2019-08-01T07:03:16,-71.277462,41.668627,-71.2774620002074,41.6686269997525
94,Station Building (with waiting room),TRAIN,04011,ME,Brunswick, ,16 Station Avenue, ,BRK,"Brunswick, ME", , ,2018-06-14T07:04:19,-69.965541,43.911388,-69.9655410000368,43.9113880002432
95,Station Building (with waiting room),TRAIN,52601,IA,Burlington, ,300 South Main Street, ,BRL,"Burlington, IA", , ,2017-11-12T04:04:50,-91.101951,40.805788,-91.1019510000561,40.8057879997679
96,Platform with Shelter,TRAIN,59417,MT,Browning, ,Heart Butte Road and Depot Road, ,BRO,"Browning, MT", ,"glacier,east glacier",2017-11-06T07:04:32,-113.013151,48.534067,-113.013151000329,48.5340670002151
97,Station Building (with waiting room),TRAIN,06604,CT,Bridgeport, ,525 Water Street, ,BRP,"Bridgeport, CT", , ,2018-09-14T04:04:46,-73.187539,41.178006,-73.1875390000642,41.1780059997923
98,Station Building (with waiting room),BUS,77802,TX,Bryan, ,3370 Texas Avenue, ,BRY,"Bryan, TX", , ,2021-04-20T04:04:21,-96.210055,30.382219,-96.2100550000643,30.3822190002925
99,Station Building (with waiting room),TRAIN,49017,MI,Battle Creek, ,119 McCamly Street South, ,BTL,"Battle Creek, MI", , ,2017-11-12T04:04:51,-85.187825,42.318453,-85.1878250001213,42.3184530000466
100,Station Building (with waiting room),TRAIN,05401,VT,Burlington, ,1 Main Street,Union Station,BTN,"Burlington, VT",Union Station, ,2022-11-21T10:50:00,-73.21927,44.4757,-73.2192700004023,44.4756999998864
101,Station Building (with waiting room),BUS,70802,LA,Baton Rouge, ,1253 Florida Boulevard, ,BTR,"Baton Rouge, LA", , ,2018-09-26T04:04:49,-91.176374,30.449741,-91.1763740003857,30.4497410002174
102,Station Building (with waiting room),BUS,05403,VT,South Burlington, ,1200 Airport Drive,Burlington International Airport,BTV,"South Burlington, VT",Burlington International Airport,Burlington,2022-05-14T07:04:10,-73.15546,44.469865,-73.1554599995716,44.469865000046
103,Station Building (with waiting room),TRAIN,14043,NY,Depew, ,55 Dick Road,Depew Station,BUF,"Buffalo, NY",Depew Station,Depew,2019-02-14T04:03:16,-78.726584,42.907017,-78.7265840002347,42.90701700027
104,Curbside Bus Stop only (no shelter),BUS,93427,CA,Buellton, ,237 East Highway 246, ,BUL,"Buellton, CA", , ,2018-09-21T04:04:44,-120.186595,34.61066,-120.186595000203,34.6106599998066
105,Platform with Shelter,TRAIN,91505,CA,Burbank, ,3750 Empire Avenue,Hollywood Burbank Airport,BUR,"Burbank, CA",Hollywood Burbank Airport,Hollywood,2018-09-15T07:04:40,-118.353767,34.193072,-118.353766999948,34.1930719996931
106,Curbside Bus Stop only (no shelter),BUS,81211,CO,Buena Vista, ,117 N Railroad St., ,BUV,"Buena Vista, CO", , ,2021-11-24T02:03:55,-106.131059,38.842897,-106.131058999723,38.8428969997334
107,Platform only (no shelter),BUS,97731,OR,Beaver Marsh, ,100350 Highway 97, ,BVM,"Beaver Marsh, OR", , ,2021-06-29T07:04:16,-121.803189,43.134572,-121.803189000208,43.1345719997999
108,Curbside Bus Stop only (no shelter),BUS,97225,OR,Beaverton, ,10470 Southwest Barnes Road, ,BVT,"Beaverton, OR", , ,2018-09-27T04:04:52,-122.78217,45.510223,-122.782170000062,45.5102230002364
109,Station Building (with waiting room),TRAIN,21240,MD,Baltimore, ,7 Amtrak Way, ,BWI,"BWI Marshall Airport, MD", ,"Baltimore,bwi airport",2018-05-26T07:04:17,-76.6943,39.192362,-76.6942999995817,39.1923619998656
110,Station Building (with waiting room),TRAIN,43506,OH,Bryan, ,Paige and Lynn Street, ,BYN,"Bryan, OH", , ,2017-11-12T04:04:54,-84.551799,41.480319,-84.5517989996836,41.480318999739
111,Station Building (with waiting room),TRAIN,29020,SC,Camden, ,1060 West Dekalb Street, ,CAM,"Camden, SC", , ,2017-11-12T04:04:54,-80.62519,34.248157,-80.6251899999018,34.2481569998774
112,Station Building (with waiting room),BUS,82601,WY,Casper, ,601 North Center Street, ,CAS,"Casper, WY", , ,2018-09-28T04:04:47,-106.324772,42.856427,-106.324772000441,42.8564269998922
113,Curbside Bus Stop only (no shelter),BUS,03818,NH,Conway, ,13 West Main Street, ,CAY,"Conway, NH", , ,2018-09-27T04:04:53,-71.126573,43.978298,-71.1265729997251,43.9782979998216
114,Curbside Bus Stop only (no shelter),BUS,81224,CO,Crested Butte, ,306 6th Street, ,CBC,"Crested Butte, CO", , ,2022-09-02T07:04:42,-106.980905,38.870357,-106.980904999968,38.8703569996859
115,Curbside Bus Stop only (no shelter),BUS,97110,OR,Cannon Beach, ,1170 South Hemlock Street, ,CBO,"Cannon Beach, OR", , ,2018-09-27T04:04:53,-123.961842,45.889496,-123.961841999675,45.8894960003036
116,Platform with Shelter,TRAIN,76031,TX,Cleburne, ,206 North Border Street, ,CBR,"Cleburne, TX", , ,2019-04-26T04:03:17,-97.382333,32.349743,-97.3823329998113,32.3497429996706
117,Station Building (with waiting room),TRAIN,53925,WI,Columbus, ,359 North Ludington Street, ,CBS,"Columbus, WI", , ,2017-11-12T04:04:55,-89.012609,43.340611,-89.0126090003525,43.3406110002378
118,Curbside Bus Stop only (no shelter),BUS,97420,OR,Coos Bay, ,525 Anderson Avenue, ,CBY,"Coos Bay, OR", , ,2023-09-20T02:06:42,-124.217366,43.367107,-124.217365999985,43.3671069997335
119,Curbside Bus Stop only (no shelter),BUS,92230,CA,Cabazon, ,49500 Seminole Drive, ,CBZ,"Cabazon, CA", , ,2019-01-12T04:03:19,-116.798713,33.921492,-116.798713000272,33.9214919997935
120,Curbside Bus Stop only (no shelter),BUS,21613,MD,Cambridge, ,100 Heron Boulevard, ,CDE,"Cambridge, MD", , ,2018-09-27T04:04:54,-76.048392,38.561752,-76.0483920001144,38.5617519999133
121,Station Building (with waiting room),TRAIN,62901,IL,Carbondale, ,401 South Illinois Avenue, ,CDL,"Carbondale, IL", , ,2017-11-12T04:04:56,-89.216628,37.724235,-89.216628000423,37.7242349997531
122,Curbside Bus Stop only (no shelter),BUS,04856,ME,Rockport, ,20 Commercial Street, ,CDN,"Camden-Rockport, ME", , ,2018-09-26T04:04:49,-69.078634,44.199095,-69.0786340002253,44.19909500018
123,Curbside Bus Stop only (no shelter),BUS,49319,MI,Cedar Springs, ,4010 17 Mile Road, ,CDS,"Cedar Springs, MI", , ,2022-08-15T07:04:38,-85.570486,43.219603,-85.5704860004227,43.2196030002504
124,Station Building (with waiting room),TRAIN,62801,IL,Centralia, ,110 South Oak St., ,CEN,"Centralia, IL", , ,2018-09-28T04:04:47,-89.136118,38.527531,-89.1361179995585,38.5275310002424
125,Station Building (with waiting room),BUS,16830,PA,Clearfield, ,314 East Cherry Street, ,CFD,"Clearfield, PA", , ,2018-07-20T07:04:38,-78.43533,41.021095,-78.4353299999787,41.0210949997976
126,Curbside Bus Stop only (no shelter),BUS,99111,WA,Colfax, ,610 South Main St., ,CFX,"Colfax, WA", , ,2018-09-27T04:04:54,-117.365156,46.875679,-117.365156000062,46.8756789997617
127,Curbside Bus Stop only (no shelter),BUS,93614,CA,Coarsegold, ,35305 Highway 41, ,CGD,"Coarsegold, CA", , ,2018-02-18T04:04:48,-119.699676,37.261897,-119.699675999642,37.261897000058
128,Curbside Bus Stop only (no shelter),BUS,49721,MI,Cheboygan, ,403 North Huron Street, ,CHB,"Cheboygan, MI", , ,2018-09-27T04:04:54,-84.476287,45.646723,-84.4762869995829,45.6467230002514
129,Station Building (with waiting room),BUS,82007,WY,Cheyenne, ,3306 W College Drive, ,CHD,"Cheyenne, WY", , ,2020-04-28T04:10:31,-104.84869,41.10117,-104.848689999625,41.1011700000998
130,Station Building (with waiting room),TRAIN,60606,IL,Chicago, ,255 South Clinton Street,Union Station,CHI,"Chicago, IL",Union Station,Union Station,2023-07-30T07:00:00,-87.641015,41.878992,-87.6410149999492,41.8789919998439
131,Station Building (with waiting room),BUS,49720,MI,Charlevoix, ,103 Bridge Park Drive, ,CHL,"Charlevoix, MI", , ,2018-09-27T04:04:54,-85.257941,45.318448,-85.2579409999734,45.318447999942
132,Station Building (with waiting room),TRAIN,61820,IL,Champaign, ,45 East University Avenue, ,CHM,"Champaign-Urbana, IL", ,Urbana,2018-09-14T07:04:42,-88.241366,40.115843,-88.2413659997944,40.1158430001395
133,Curbside Bus Stop only (no shelter),BUS,97624,OR,Chiloquin, ,34333 Highway 97, ,CHN,"Chiloquin, OR", ,"Kla-Mo-Ya Casino,Kla Mo Ya Casino,Klamoya Casino",2021-06-23T07:04:14,-121.883152,42.535691,-121.883151999828,42.5356909997389
134,Curbside Bus Stop only (no shelter),BUS,54729,WI,Chippewa Falls, ,2750 120th Street, ,CHP,"Chippewa Falls, WI", , ,2018-09-28T04:04:48,-91.427794,44.883096,-91.4277939997097,44.8830960000661
135,Station Building (with waiting room),TRAIN,29405,SC,North Charleston,North Charleston Transit Center,4565 Gaynor Avenue, ,CHS,"Charleston, SC", , ,2019-04-27T04:03:14,-79.998048,32.875473,-79.9980479998576,32.8754729999964
136,Station Building (with waiting room),TRAIN,25314,WV,Charleston, ,350 MacCorkle Avenue - Southeast, ,CHW,"Charleston, WV", , ,2018-09-14T04:04:48,-81.638494,38.346368,-81.6384939999127,38.3463679997886
137,Platform only (no shelter),TRAIN,95928,CA,Chico, ,450 Orange Street, ,CIC,"Chico, CA", , ,2018-09-14T04:04:48,-121.845861,39.723259,-121.845861000108,39.7232590000857
138,Station Building (with waiting room),TRAIN,45203,OH,Cincinnati, ,1301 Western Avenue,Union Terminal,CIN,"Cincinnati, OH",Union Terminal,Union Terminal,2018-12-13T07:03:25,-84.537061,39.109927,-84.5370610001805,39.1099270001276
139,Platform with Shelter,TRAIN,03743,NH,Claremont, ,Plains Road and Maple Avenue, ,CLA,"Claremont, NH", , ,2017-11-12T04:05:01,-72.377644,43.36833,-72.3776440000285,43.3683300001435
140,Station Building (with waiting room),TRAIN,29201,SC,Columbia, ,850 Pulaski Street, ,CLB,"Columbia, SC", , ,2017-11-12T04:05:01,-81.04049,33.994297,-81.0404899996642,33.9942970001863
141,Curbside Bus Stop only (no shelter),BUS,49601,MI,Cadillac, ,951 Casa Road, ,CLC,"Cadillac, MI", , ,2018-09-27T04:04:55,-85.389748,44.270402,-85.3897479997669,44.2704020001493
142,Station Building (with waiting room),TRAIN,44114,OH,Cleveland, ,200 Cleveland Memorial Shoreway, ,CLE,"Cleveland, OH", , ,2017-11-06T07:04:38,-81.696172,41.505787,-81.6961720000027,41.5057869996893
143,Station Building (with waiting room),TRAIN,24422,VA,Clifton Forge, ,307 East Ridgeway Street, ,CLF,"Clifton Forge, VA", , ,2018-09-14T04:04:48,-79.827363,37.814521,-79.8273629997322,37.8145210001461
144,Platform with Shelter,BUS,91711,CA,Claremont, ,200 West First Street, ,CLM,"Claremont, CA", , ,2018-09-21T04:04:45,-117.716857,34.094469,-117.716856999779,34.0944689997523
145,Station Building (with waiting room),TRAIN,06413,CT,Clinton, ,10 John Street Extension, ,CLN,"Clinton, CT", , ,2024-08-18T02:00:03,-72.52929,41.280743,-72.5292900000209,41.2807429997669
146,Station Building (with waiting room),TRAIN,22701,VA,Culpeper, ,111 South Commerce Street, ,CLP,"Culpeper, VA", , ,2017-11-12T04:05:03,-77.993421,38.47236,-77.9934209995921,38.4723600002217
147,Curbside Bus Stop only (no shelter),BUS,48617,MI,Clare, ,10197 South Clare Avenue, ,CLR,"Clare, MI", , ,2018-09-27T04:04:55,-84.767465,43.840968,-84.7674649996709,43.8409680000761
148,Station Building (with waiting room),TRAIN,28206,NC,Charlotte, ,1914 North Tryon Street, ,CLT,"Charlotte, NC", , ,2017-11-12T04:05:03,-80.822812,35.241403,-80.822811999816,35.2414030001239
149,Curbside Bus Stop only (no shelter),BUS,95425,CA,Cloverdale, ,501 Asti Road, ,CLV,"Cloverdale, CA", , ,2018-09-21T04:04:45,-123.011847,38.79811,-123.011847000179,38.7981100003478
150,Platform only (no shelter),TRAIN,93010,CA,Camarillo, ,30 Lewis Road, ,CML,"Camarillo, CA", , ,2017-11-12T04:05:04,-119.034114,34.215933,-119.034113999924,34.2159330000471
151,Platform with Shelter,TRAIN,97731,OR,Chemult, ,Palmer/Kranz Street and Depot Street, ,CMO,"Chemult, OR", , ,2018-09-14T04:04:49,-121.781594,43.216784,-121.781594000241,43.2167839999589
152,Station Building (with waiting room),BUS,03301,NH,Concord, ,30 Stickney Avenue, ,CNH,"Concord, NH", , ,2018-09-27T04:04:56,-71.534677,43.212748,-71.5346769999883,43.2127480001685
153,Platform only (no shelter),TRAIN,93219,CA,Allensworth, ,4011 Grant Drive, ,CNL,"Col Allensworth State Park, CA", ,"Allensworth,Colonel Allensworth,cnl",2024-09-06T02:06:46,-119.385865,35.864338,-119.38586499987,35.864337999993
154,Station Building (with waiting room),TRAIN,05735,VT,Castleton, ,266 Main Street, ,CNV,"Castleton, VT", , ,2017-11-12T04:05:05,-73.171337,43.613382,-73.1713369999729,43.6133819996975
155,Station Building (with waiting room),TRAIN,93212,CA,Corcoran, ,1099 Otis Avenue, ,COC,"Corcoran, CA", , ,2018-09-14T04:04:49,-119.55705,36.098516,-119.557049999587,36.0985160001363
156,Platform with Shelter,TRAIN,47331,IN,Connersville, ,1012 Eastern Avenue, ,COI,"Connersville, IN", , ,2017-11-12T04:05:06,-85.13338,39.645969,-85.1333799999078,39.6459689998402
157,Curbside Bus Stop only (no shelter),BUS,80905,CO,Colorado Springs, ,S Tejon St and I-25, ,COS,"Colorado Springs, CO", , ,2020-09-01T04:03:21,-104.823923,38.814882,-104.82392299988,38.8148819996718
158,Platform with Shelter,TRAIN,19320,PA,Coatesville, ,Third Avenue and Fleetwood Street, ,COT,"Coatesville, PA", , ,2024-07-20T02:00:03,-75.820929,39.985688,-75.8209290004227,39.9856880001636
159,Platform with Shelter,TRAIN,15425,PA,Connellsville, ,North Water Street & West Peach Street, ,COV,"Connellsville, PA", , ,2017-11-06T07:04:40,-79.592813,40.020282,-79.5928130003212,40.0202819997194
160,Station Building (with waiting room),TRAIN,95713,CA,Colfax, ,99 Railroad Street, ,COX,"Colfax, CA", , ,2018-09-14T04:04:49,-120.953075,39.099172,-120.953075000174,39.0991720001838
161,Curbside Bus Stop only (no shelter),BUS,95682,CA,Cameron Park, ,3952 Cambridge Rd, ,CPC,"Cameron Park, CA", ,"Cambridge Road,Cambridge Rd.",2021-06-23T07:04:14,-120.998594,38.658499,-120.998594000161,38.6584989999459
162,Platform with Shelter,TRAIN,93013,CA,Carpinteria, ,475 Linden Avenue, ,CPN,"Carpinteria, CA", , ,2018-09-14T04:04:49,-119.522975,34.39678,-119.522975000025,34.3967799998668
163,Curbside Bus Stop only (no shelter),BUS,95531,CA,Crescent City, ,1001 Front Street   , ,CRC,"Crescent City, CA", , ,2018-09-21T04:04:46,-124.193475,41.752373,-124.193474999576,41.7523730000363
164,Platform with Shelter,TRAIN,47933,IN,Crawfordsville, ,400 North Green Street, ,CRF,"Crawfordsville, IN", , ,2017-11-12T04:05:08,-86.899187,40.044705,-86.8991870000947,40.0447050001349
165,Station Building (with waiting room),TRAIN,08002,NJ,Cherry Hill, ,Cornell Avenue & West Marlton Pike, ,CRH,"Cherry Hill, NJ", , ,2018-09-27T04:04:57,-75.041824,39.928946,-75.0418240001935,39.9289459997573
166,Station Building (with waiting room),BUS,37043,TN,Clarksville, ,750 S Gateway Plaza Blvd, ,CRK,"Clarksville, TN", , ,2020-07-18T04:04:48,-87.217388,36.524485,-87.2173880001853,36.5244850000587
167,Curbside Bus Stop only (no shelter),BUS,93923,CA,Carmel, ,3645 Rio Road, ,CRM,"Carmel, CA", , ,2018-09-21T04:04:46,-121.908797,36.539033,-121.908797000354,36.5390329998667
168,Station Building (with waiting room),TRAIN,50801,IA,Creston, ,116 West Adams Street, ,CRN,"Creston, IA", , ,2021-01-20T04:04:16,-94.361617,41.05692,-94.3616170002703,41.056919999858
169,Station Building (with waiting room),TRAIN,10520,NY,Croton-on-Hudson, ,4 Veteran's Plaza and 1 Croton Point Avenue, ,CRT,"Croton-Harmon, NY", , ,2017-11-12T04:05:09,-73.882394,41.189903,-73.8823940002874,41.1899030001684
170,Station Building (with waiting room),TRAIN,62626,IL,Carlinville, ,128 Alton Road, ,CRV,"Carlinville, IL", , ,2017-11-06T07:04:41,-89.889276,39.279295,-89.8892760000357,39.2792949999171
171,Station Building (with waiting room),TRAIN,29631,SC,Clemson, ,1105 Tiger Boulevard, ,CSN,"Clemson, SC", , ,2017-11-12T04:05:10,-82.832501,34.691115,-82.8325010004193,34.6911149998953
172,Curbside Bus Stop only (no shelter),BUS,97733,OR,Crescent, ,136620 Highway 97, ,CSO,"Crescent, OR", , ,2021-07-15T04:04:11,-121.695659,43.462975,-121.695658999714,43.4629749998389
173,Station Building (with waiting room),TRAIN,98531,WA,Centralia, ,210 Railroad Avenue, ,CTL,"Centralia, WA", , ,2017-11-12T04:05:10,-122.953062,46.71747,-122.953061999876,46.7174699999125
174,Curbside Bus Stop only (no shelter),BUS,13617,NY,Canton, ,21 Miner Street,Downtown,CTO,"Canton, NY",Downtown, ,2019-02-15T04:03:17,-75.170827,44.594198,-75.1708269995575,44.5941980000222
175,Curbside Bus Stop only (no shelter),BUS,13617,NY,Canton, ,34 Cornell Drive,State University of New York,CTS,"Canton, NY",State University of New York, ,2018-06-22T07:04:35,-75.184956,44.603306,-75.1849559996885,44.6033060002514
176,Curbside Bus Stop only (no shelter),BUS,21502,MD,Cumberland, ,12401 Willowbrook Road SE,Allegany College of Maryland,CUA,"Cumberland, MD",Allegany College of Maryland, ,2018-09-27T04:04:57,-78.730438,39.650452,-78.7304380000773,39.6504520003337
177,Station Building (with waiting room),TRAIN,21502,MD,Cumberland, ,201 East Harrison Street,Amtrak Station,CUM,"Cumberland, MD",Amtrak Station, ,2019-02-14T04:03:17,-78.758,39.650628,-78.7580000000302,39.650627999746
178,Station Building (with waiting room),TRAIN,59427,MT,Cut Bank, ,101 BNSF Industrial Site, ,CUT,"Cut Bank, MT", , ,2018-09-14T04:04:50,-112.331584,48.638364,-112.331584000163,48.6383639999743
179,Curbside Bus Stop only (no shelter),BUS,86322,AZ,Camp Verde, ,1897 Pueblo Ridge, ,CVD,"Camp Verde, AZ", , ,2018-09-21T04:04:47,-111.886244,34.580541,-111.886244000432,34.5805410002633
180,Station Building (with waiting room),BUS,97330,OR,Corvallis, ,508 Southwest Monroe Ave,Downtown Transit Center,CVI,"Corvallis, OR",Downtown Transit Center, ,2022-03-09T07:04:17,-123.263452,44.564907,-123.263452000349,44.5649070000038
181,Curbside Bus Stop only (no shelter),BUS,97523,OR,Cave Junction, ,406 Redwood Coast Highway, ,CVJ,"Cave Junction, OR", , ,2018-09-27T04:04:57,-123.647,42.163002,-123.646999999857,42.1630019999875
182,Curbside Bus Stop only (no shelter),BUS,97331,OR,Corvallis, ,Southwest Jefferson Way,Oregon State University,CVO,"Corvallis, OR",Oregon State University, ,2022-03-09T07:04:17,-123.272751,44.564411,-123.272750999946,44.5644110003098
183,Station Building (with waiting room),TRAIN,22903,VA,Charlottesville, ,810 West Main Street, ,CVS,"Charlottesville, VA", , ,2017-11-12T04:05:12,-78.491684,38.031484,-78.4916840001209,38.0314840002712
184,Curbside Bus Stop only (no shelter),BUS,05446,VT,Colchester, ,Highway 7 at Brentwood Drive, ,CVT,"Colchester, VT", , ,2021-06-24T07:04:17,-73.165387,44.594999,-73.1653869997054,44.5949989999871
185,Platform with Shelter,TRAIN,19020,PA,Cornwells Heights, ,700 Station Avenue, ,CWH,"Cornwells Heights, PA", , ,2018-09-14T04:04:50,-74.952187,40.071663,-74.9521870001597,40.0716629997955
186,Platform with Shelter,TRAIN,91311,CA,Chatsworth, ,10040 Old Depot Plaza Road, ,CWT,"Chatsworth, CA", , ,2017-11-12T04:05:13,-118.599417,34.253205,-118.599416999828,34.2532050003129
187,Station Building (with waiting room),TRAIN,27513,NC,Cary, ,211 North Academy Street, ,CYN,"Cary, NC", , ,2017-11-12T04:05:13,-78.782246,35.788294,-78.7822460002658,35.7882940002429
188,Station Building (with waiting room),BUS,75202,TX,Dallas, ,205 South Lamar Street,Greyhound Station,DAG,"Dallas, TX",Greyhound Station, ,2019-02-14T07:03:19,-96.804121,32.778637,-96.8041209999062,32.778637000299
189,Station Building (with waiting room),TRAIN,75202,TX,Dallas, ,400 South Houston Street,Eddie Bernice Johnson Union Sta,DAL,"Dallas, TX",Eddie Bernice Johnson Union Sta,Union Station,2019-05-10T07:03:12,-96.807235,32.776094,-96.8072349999571,32.7760939998943
190,Curbside Bus Stop only (no shelter),BUS,04543,ME,Damariscotta, ,167 Main Street, ,DAM,"Damariscotta, ME", , ,2018-09-26T04:04:50,-69.531009,44.032398,-69.5310089997977,44.032398000255
191,Station Building (with waiting room),TRAIN,24541,VA,Danville, ,677 Craghead Street, ,DAN,"Danville, VA", , ,2017-11-12T04:05:14,-79.383968,36.58409,-79.3839679999144,36.5840899998786
192,Station Building (with waiting room),BUS,45426,OH,Trotwood, ,5136 Salem Avenue, ,DAT,"Dayton-Trotwood, OH", ,Trotwood,2021-09-30T02:04:01,-84.27806,39.81762,-84.2780599995961,39.8176200001998
193,Station Building (with waiting room),TRAIN,95616,CA,Davis, ,840 Second Street, ,DAV,"Davis, CA", , ,2018-09-14T04:04:50,-121.737707,38.543562,-121.737707000173,38.5435620001606
194,Station Building (with waiting room),BUS,15801,PA,Du Bois, ,4900 Rockton Road, ,DBI,"Du Bois, PA", , ,2018-07-19T07:04:40,-78.72441,41.111736,-78.724409999992,41.1117359996832
195,Station Building (with waiting room),BUS,94588,CA,Pleasanton, ,5801 Owens Drive, ,DBP,"Dublin-Pleasanton, CA", ,Pleasanton,2018-09-21T07:04:43,-121.897697,37.702833,-121.897696999885,37.7028330000535
196,Curbside Bus Stop only (no shelter),BUS,98368,WA,Discovery Bay, ,282624 U.S. Highway 101, ,DBY,"Discovery Bay, WA", , ,2019-01-11T07:03:27,-122.887334,47.987795,-122.887333999794,47.9877950000069
197,Platform with Shelter,BUS,33525,FL,Dade City, ,14418 5th Street, ,DDE,"Dade City, FL", , ,2024-06-09T02:00:03,-82.18744,28.367854,-82.1874399999755,28.3678539998084
198,Station Building (with waiting room),TRAIN,67801,KS,Dodge City, ,201 East Wyatt Earp Boulevard, ,DDG,"Dodge City, KS", , ,2023-06-14T02:06:43,-100.016961,37.752306,-100.016960999904,37.7523059999792
199,Platform with Shelter,TRAIN,88030,NM,Deming, ,400 East Railroad Avenue, ,DEM,"Deming, NM", , ,2024-06-09T02:00:04,-107.754346,32.27177,-107.75434600016,32.2717699996277
200,Station Building (with waiting room),TRAIN,80202,CO,Denver, ,1701 Wynkoop Street,Union Station,DEN,"Denver, CO",Union Station,Union Station,2018-12-13T07:03:25,-104.999929,39.752959,-104.999928999911,39.7529590001022
201,Station Building (with waiting room),TRAIN,48124,MI,Dearborn, ,21201 Michigan Avenue, ,DER,"Dearborn, MI", , ,2018-09-14T04:04:51,-83.235311,42.307167,-83.2353109996428,42.3071669997036
202,Station Building (with waiting room),TRAIN,48202,MI,Detroit, ,11 West Baltimore Avenue, ,DET,"Detroit, MI", , ,2017-11-06T07:04:44,-83.072397,42.368097,-83.0723969998503,42.3680970001648
203,Station Building (with waiting room),TRAIN,33442,FL,Deerfield Beach, ,1300 West Hillsboro Boulevard, ,DFB,"Deerfield Beach, FL", , ,2017-11-12T04:05:17,-80.122147,26.317069,-80.1221469999658,26.3170690001715
204,Curbside Bus Stop only (no shelter),BUS,82633,WY,Douglas, ,1108 West Yellowstone Hwy, ,DGS,"Douglas, WY", , ,2020-03-07T04:11:17,-105.403907,42.762421,-105.403907000345,42.7624209998898
205,Station Building (with waiting room),TRAIN,03824,NH,Durham, ,3 Depot Road,University of New Hampshire,DHM,"Durham, NH",University of New Hampshire, ,2022-08-18T07:04:45,-70.936013,43.139328,-70.9360130003141,43.1393280003212
206,Station Building (with waiting room),TRAIN,29536,SC,Dillon, ,100 North Railroad Avenue, ,DIL,"Dillon, SC", , ,2017-11-12T04:05:18,-79.372301,34.417647,-79.3723009999062,34.4176470002753
207,Curbside Bus Stop only (no shelter),BUS,13630,NY,De Kalb Junction, ,4329 U.S. Highway 11, ,DKJ,"De Kalb Junction, NY", , ,2018-06-22T07:04:35,-75.274378,44.504682,-75.2743779996371,44.5046819999345
208,Platform with Shelter,TRAIN,33444,FL,Delray Beach, ,345 South Congress Avenue, ,DLB,"Delray Beach, FL", , ,2017-11-12T04:05:18,-80.091154,26.454021,-80.0911539997695,26.4540209996052
209,Station Building (with waiting room),TRAIN,32720,FL,DeLand, ,2491 Old New York Avenue, ,DLD,"DeLand, FL", , ,2018-09-14T04:04:52,-81.352477,29.017849,-81.3524769998967,29.0178490001936
210,Station Building (with waiting room),TRAIN,56501,MN,Detroit Lakes, ,116 Pioneer Street, ,DLK,"Detroit Lakes, MN", , ,2017-11-12T04:05:19,-95.845998,46.819692,-95.8459979997025,46.8196920002241
211,Curbside Bus Stop only (no shelter),BUS,15626,PA,Delmont, ,6583 U.S. Highway 22, ,DLT,"Delmont, PA", , ,2018-07-19T07:04:40,-79.580374,40.399029,-79.5803739998359,40.3990289998145
212,Station Building (with waiting room),TRAIN,27701,NC,Durham, ,601 West Main Street, ,DNC,"Durham, NC", , ,2018-09-15T04:04:45,-78.906299,35.997347,-78.9062990003432,35.9973470001762
213,Station Building (with waiting room),TRAIN,29042,SC,Denmark, ,200 West Baruch Street, ,DNK,"Denmark, SC", , ,2017-11-12T04:05:20,-81.143635,33.326184,-81.143634999863,33.3261839997188
214,Station Building (with waiting room),TRAIN,49047,MI,Dowagiac, ,200 Depot Drive, ,DOA,"Dowagiac, MI", , ,2017-11-12T04:05:20,-86.109041,41.980941,-86.1090409998462,41.9809410000732
215,Station Building (with waiting room),TRAIN,03820,NH,Dover, ,33 Chestnut Street, ,DOV,"Dover, NH", , ,2017-11-12T04:05:20,-70.878361,43.197968,-70.8783610001633,43.1979680003127
216,Platform with Shelter,TRAIN,19335,PA,Downingtown, ,159 Viaduct Avenue, ,DOW,"Downingtown, PA", , ,2017-11-12T04:05:20,-75.710775,40.002193,-75.7107750003224,40.0021929999704
217,Curbside Bus Stop only (no shelter),BUS,54415,WI,De Pere, ,100 Lawrence Dr,De Pere Park and Ride,DPE,"Green Bay, WI",De Pere Park and Ride, ,2019-07-11T07:03:38,-88.088426,44.451367,-88.0884259999914,44.4513669999949
218,Station Building (with waiting room),TRAIN,62832,IL,Du Quoin, ,20 North Chestnut Street, ,DQN,"Du Quoin, IL", , ,2017-11-12T04:05:21,-89.240254,38.012328,-89.2402539996192,38.0123279998772
219,Station Building (with waiting room),TRAIN,48429,MI,Durand, ,200 South Railroad Street, ,DRD,"Durand, MI", , ,2017-11-12T04:05:21,-83.98232,42.909495,-83.9823199996608,42.9094950002816
220,Platform only (no shelter),TRAIN,78840,TX,Del Rio, ,100 North Main Street, ,DRT,"Del Rio, TX", , ,2021-01-22T04:04:26,-100.902662,29.362202,-100.902661999768,29.3622020003765
221,Curbside Bus Stop only (no shelter),BUS,97911,OR,Drewsey, ,178 U.S. Highway 20, ,DRW,"Drewsey, OR", , ,2018-06-15T07:04:18,-118.357319,43.778199,-118.357318999667,43.7781990003009
222,Station Building (with waiting room),BUS,55802,MN,Duluth, ,228 West Michigan Street,Transportation Center,DUL,"Duluth, MN",Transportation Center, ,2019-02-14T07:03:19,-92.101209,46.783872,-92.1012089997766,46.7838719998254
223,Station Building (with waiting room),TRAIN,96025,CA,Dunsmuir, ,5750 Sacramento Avenue, ,DUN,"Dunsmuir, CA", , ,2018-09-14T04:04:52,-122.270587,41.211127,-122.270586999689,41.2111269999402
224,Curbside Bus Stop only (no shelter),BUS,55812,MN,Duluth, ,1120 Kirby Drive,University of Minnesota,DUU,"Duluth, MN",University of Minnesota, ,2018-09-27T04:05:01,-92.086097,46.817841,-92.0860970001797,46.8178409998797
225,Curbside Bus Stop only (no shelter),BUS,61834,IL,Danville, ,379 Lynch Road, ,DVI,"Danville, IL", , ,2018-09-26T04:04:50,-87.540521,40.122053,-87.5405210000191,40.1220530002327
226,Station Building (with waiting room),TRAIN,58301,ND,Devils Lake, ,Railroad Avenue and Third Street, ,DVL,"Devils Lake, ND", , ,2017-11-12T04:05:25,-98.861372,48.110468,-98.8613720003198,48.1104680000638
227,Station Building (with waiting room),BUS,52801,IA,Davenport, ,304 W. River Drive, ,DVP,"Davenport, IA", , ,2020-05-06T04:10:24,-90.57779,41.52075,-90.5777900001791,41.520750000277
228,Station Building (with waiting room),TRAIN,60420,IL,Dwight, ,401 South Columbia Street, ,DWT,"Dwight, IL", , ,2017-11-12T04:05:26,-88.430707,41.089854,-88.4307069997379,41.089853999842
229,Curbside Bus Stop only (no shelter),BUS,32118,FL,Daytona Beach, ,100 North Atlantic Avenue, ,DYA,"Daytona Beach, FL", , ,2018-09-26T04:04:51,-81.008922,29.228923,-81.008922000431,29.2289230000028
230,Platform with Shelter,TRAIN,46311,IN,Dyer, ,913 Sheffield Avenue, ,DYE,"Dyer, IN", , ,2017-11-12T04:05:26,-87.518076,41.515413,-87.5180759997573,41.5154130001591
231,Curbside Bus Stop only (no shelter),BUS,15931,PA,Ebensburg, ,202 West High Street, ,EBN,"Ebensburg, PA", , ,2018-09-27T04:05:01,-78.726152,40.485126,-78.7261520004145,40.485125999728
232,Station Building (with waiting room),TRAIN,98020,WA,Edmonds, ,211 Railroad Avenue, ,EDM,"Edmonds, WA", , ,2017-11-12T04:05:27,-122.384141,47.811081,-122.38414100007,47.81108100002
233,Station Building (with waiting room),TRAIN,62401,IL,Effingham, ,401 West National Avenue, ,EFG,"Effingham, IL", , ,2017-11-12T04:05:27,-88.54711,39.117059,-88.5471099998564,39.1170589998887
234,Platform with Shelter,TRAIN,08215,NJ,Egg Harbor City, ,South Philadelphia Avenue & Atlantic Avenue, ,EGH,"Egg Harbor City, NJ", , ,2018-09-27T04:05:02,-74.64802,39.526494,-74.6480199997655,39.5264940003116
235,Curbside Bus Stop only (no shelter),BUS,95501,CA,Eureka, ,6th and C Streets, ,EKA,"Eureka, CA", , ,2024-02-14T02:08:21,-124.16933,40.800739,-124.169329999623,40.8007389999096
236,Curbside Bus Stop only (no shelter),BUS,95758,CA,Elk Grove, ,9180 Harbour Point Drive, ,EKG,"Elk Grove, CA", , ,2018-09-21T04:04:48,-121.480807,38.424746,-121.480807000036,38.4247459999331
237,Station Building (with waiting room),TRAIN,46515,IN,Elkhart, ,131 Tyler Avenue, ,EKH,"Elkhart, IN", , ,2017-11-12T04:05:28,-85.971848,41.680748,-85.9718479998499,41.6807480001698
238,Station Building (with waiting room),BUS,79901,TX,El Paso, ,200 West San Antonio Avenue,Greyhound Station,ELB,"El Paso, TX",Greyhound Station, ,2018-10-24T04:04:46,-106.489938,31.756732,-106.489938000294,31.7567319997498
239,Platform with Shelter,TRAIN,89801,NV,Elko,1301 Sharps Access Road (Train 6),1300 Water Street (Train 5), ,ELK,"Elko, NV", , ,2017-11-12T04:05:29,-115.75053,40.836483,-115.750530000435,40.8364829999602
240,Station Building (with waiting room),TRAIN,79901,TX,El Paso, ,700 West San Francisco Avenue,Union Depot,ELP,"El Paso, TX",Union Depot,Union Depot,2018-09-14T07:04:45,-106.495644,31.757346,-106.495644000164,31.7573460000104
241,Curbside Bus Stop only (no shelter),BUS,97138,OR,Elsie, ,42362 US Highway 26, ,ELS,"Elsie, OR", , ,2018-09-29T04:04:49,-123.615101,45.886845,-123.615101000188,45.8868449997809
242,Station Building (with waiting room),TRAIN,17022,PA,Elizabethtown, ,50 South Wilson Avenue , ,ELT,"Elizabethtown, PA", , ,2017-11-12T04:05:30,-76.612234,40.147028,-76.6122339998642,40.1470279998141
243,Platform only (no shelter),TRAIN,44035,OH,Elyria, ,410 East River Road, ,ELY,"Elyria, OH", , ,2017-11-12T04:05:30,-82.096685,41.370033,-82.0966849998582,41.3700330002855
244,Curbside Bus Stop only (no shelter),BUS,49829,MI,Escanaba, ,2901 27th Avenue North, ,EMI,"Escanaba, MI", , ,2018-09-27T04:05:02,-87.089868,45.779858,-87.0898679998795,45.7798580000309
245,Station Building (with waiting room),TRAIN,94608,CA,Emeryville, ,5885 Horton Street, ,EMY,"Emeryville, CA", , ,2017-11-06T07:04:49,-122.291615,37.840474,-122.291615000116,37.8404739999696
246,Platform with Shelter,TRAIN,98823,WA,Ephrata, ,90 Alder Street NW, ,EPH,"Ephrata, WA", , ,2018-09-29T04:04:49,-119.549267,47.320948,-119.549266999559,47.3209480001925
247,Curbside Bus Stop only (no shelter),BUS,95318,CA,El Portal, ,11136 Highway 140, ,EPL,"El Portal, CA", , ,2018-09-21T04:04:48,-119.765742,37.678454,-119.765741999833,37.6784539996684
248,Station Building (with waiting room),TRAIN,16501,PA,Erie, ,125 West 14th Street, ,ERI,"Erie, PA", , ,2017-11-12T04:05:32,-80.082444,42.120847,-80.0824440003517,42.1208470002238
249,Curbside Bus Stop only (no shelter),BUS,90245,CA,El Segundo, ,700 South Douglas Street, ,ESG,"El Segundo, CA", , ,2018-09-21T04:04:48,-118.383533,33.906609,-118.383533000281,33.9066089998506
250,Platform only (no shelter),TRAIN,59916,MT,Essex, ,290 Izaak Walton Inn Road, ,ESM,"Essex, MT", , ,2018-09-14T04:04:53,-113.610942,48.275543,-113.610942000143,48.2755430001391
251,Curbside Bus Stop only (no shelter),BUS,21601,MD,Easton, ,29137 Newman Road, ,ESN,"Easton, MD", , ,2018-09-27T04:05:03,-76.064904,38.811393,-76.0649039998272,38.8113929999831
252,Station Building (with waiting room),TRAIN,05452,VT,Essex Junction, ,29 Railroad Avenue,Amtrak Station,ESX,"Essex Junction, VT",Amtrak Station,Burlington,2022-07-21T07:04:25,-73.110277,44.492466,-73.1102770000433,44.4924659999524
253,Curbside Bus Stop only (no shelter),BUS,97401,OR,Eugene, ,1100 Willamette Street,Chase Bank,EUB,"Eugene-Springfield, OR",Chase Bank,Springfield,2024-04-17T09:58:03,-123.092852,44.047504,-123.092851999714,44.047504000084
254,Curbside Bus Stop only (no shelter),BUS,54702,WI,Eau Claire, ,642 University Drive,University of Wisconsin,EUC,"Eau Claire, WI",University of Wisconsin, ,2018-09-28T07:04:41,-91.506339,44.796558,-91.5063389996706,44.7965579999464
255,Station Building (with waiting room),TRAIN,97401,OR,Eugene, ,433 Willamette Street,Amtrak Station,EUG,"Eugene, OR",Amtrak Station, ,2019-04-17T07:03:16,-123.092361,44.055043,-123.092361000343,44.0550430001984
256,Curbside Bus Stop only (no shelter),BUS,97403,OR,Eugene, ,1615 East 13th Ave,University of Oregon,EUO,"Eugene, OR",University of Oregon, ,2024-09-15T02:52:16,-123.06875,44.045556,-123.068750000317,44.0455559999922
257,Curbside Bus Stop only (no shelter),BUS,13637,NY,Evans Mills, ,8650 Leray Street, ,EVM,"Evans Mills, NY", , ,2018-06-22T07:04:35,-75.799444,44.08427,-75.7994440000606,44.0842700000009
258,Station Building (with waiting room),BUS,47708,IN,Evansville, ,119 Northwest 6th Street, ,EVN,"Evansville, IN", , ,2018-09-26T04:04:52,-87.569534,37.973786,-87.5695340001414,37.9737859998846
259,Station Building (with waiting room),TRAIN,98201,WA,Everett, ,3201 Smith Avenue, ,EVR,"Everett, WA", , ,2017-11-12T04:05:35,-122.197858,47.975401,-122.197858000101,47.975400999863
260,Curbside Bus Stop only (no shelter),BUS,82930,WY,Evanston, ,106 North 3rd Street, ,EVY,"Evanston, WY", , ,2018-09-28T04:04:49,-110.957598,41.264175,-110.957597999957,41.264174999715
261,Station Building (with waiting room),TRAIN,07114,NJ,Newark, ,3 Brewster Road,Liberty International Airport,EWR,"Newark, NJ",Liberty International Airport,"Liberty International,Liberty Airport,Liberty Intl",2018-09-14T07:04:45,-74.18229,40.696618,-74.1822900001891,40.6966179998749
262,Platform with Shelter,TRAIN,03833,NH,Exeter, ,60 Lincoln Street, ,EXR,"Exeter, NH", , ,2018-09-14T04:04:54,-70.9587,42.98102,-70.9587000004252,42.9810200001499
263,Station Building (with waiting room),TRAIN,19341,PA,Exton, ,445 Walkertown Road, ,EXT,"Exton, PA", , ,2020-02-22T04:11:05,-75.621713,40.019291,-75.6217130002239,40.0192910002022
264,Station Building (with waiting room),TRAIN,58102,ND,Fargo, ,420 4th Street North, ,FAR,"Fargo, ND", , ,2017-11-12T04:05:36,-96.785372,46.880982,-96.7853720002016,46.8809819998918
265,Station Building (with waiting room),BUS,02721,MA,Fall River, ,118 4th Street, ,FAV,"Fall River, MA", , ,2023-07-29T02:06:50,-71.154432,41.698447,-71.1544319997789,41.698446999877
266,Station Building (with waiting room),TRAIN,28301,NC,Fayetteville, ,472 Hay Street, ,FAY,"Fayetteville, NC", , ,2017-11-12T04:05:37,-78.884788,35.054993,-78.8847880000419,35.054993000315
267,Platform with Shelter,TRAIN,22401,VA,Fredericksburg, ,425 Princess Anne Street, ,FBG,"Fredericksburg, VA", , ,2023-01-03T12:18:52,-77.457707,38.29808,-77.457707000408,38.2980799999579
268,Curbside Bus Stop only (no shelter),BUS,80528,CO,Fort Collins, ,4308 East Harmony Road, ,FCC,"Fort Collins, CO", ,"Ft Collins,Ft. Collins,Collins",2018-09-26T04:04:52,-104.996531,40.524231,-104.996531000178,40.5242310003154
269,Curbside Bus Stop only (no shelter),BUS,54937,WI,Fond du Lac, ,191 W Rolling Meadows Dr, ,FDL,"Fond du Lac, WI", , ,2024-07-05T02:00:00,-88.46394,43.74882,-88.4639400002991,43.7488199998259
270,Platform only (no shelter),TRAIN,12828,NY,Fort Edward, ,70 East Street, ,FED,"Fort Edward-Glens Falls, NY", ,"Ft Edward,Ft. Edward,Edward,Glens Falls, Glenns Falls,Hudson Falls",2018-09-14T07:04:46,-73.58055,43.269603,-73.5805500000988,43.269602999869
271,Station Building (with waiting room),TRAIN,94533,CA,Fairfield, ,4921 Vanden Road, ,FFV,"Fairfield-Vacaville, CA", ,Vacaville,2017-11-06T07:04:52,-121.967926,38.285626,-121.967925999715,38.285625999989
272,Station Building (with waiting room),BUS,86001,AZ,Flagstaff, ,880 East Butler Ave.,Greyhound Station,FGG,"Flagstaff, AZ",Greyhound Station, ,2018-12-13T07:03:26,-111.638801,35.192292,-111.638801000075,35.1922919996354
273,Curbside Bus Stop only (no shelter),BUS,76544,TX,Fort Cavazos, ,"Building 18010, 48th Street", ,FHD,"Fort Cavazos, TX", ,"Ft Hood,Ft. Hood,Hood,Cavazos,Ft Cavazos,Ft. Cavazos",2023-06-14T02:06:44,-97.766812,31.141597,-97.766811999805,31.141596999756
274,Curbside Bus Stop only (no shelter),BUS,93015,CA,Fillmore, ,718 West Ventura Street, ,FIL,"Fillmore, CA", , ,2018-09-29T04:04:50,-118.918319,34.396009,-118.918319000251,34.3960090001066
275,Station Building (with waiting room),TRAIN,86001,AZ,Flagstaff, ,1 East Route 66,Amtrak Station,FLG,"Flagstaff, AZ",Amtrak Station, ,2019-02-14T07:03:20,-111.648871,35.197374,-111.648871000324,35.1973740001013
276,Station Building (with waiting room),TRAIN,48503,MI,Flint, ,1407 South Dort Highway, ,FLN,"Flint, MI", , ,2017-11-12T04:05:39,-83.651728,43.015425,-83.6517279996638,43.0154249998738
277,Station Building (with waiting room),TRAIN,29506,SC,Florence, ,805 East Day Street, ,FLO,"Florence, SC", , ,2017-11-12T04:05:39,-79.757056,34.199157,-79.7570560000844,34.1991569997407
278,Station Building (with waiting room),TRAIN,52627,IA,Fort Madison,Suite 1,810 10th Street ,Historic Santa Fe Station,FMD,"Fort Madison, IA",Historic Santa Fe Station,"Ft Madison,Ft. Madison,Madison",2021-12-16T02:03:39,-91.313529,40.629558,-91.3135289998489,40.6295580000399
279,Station Building (with waiting room),TRAIN,80701,CO,Fort Morgan, ,South Ensign Street and Main Street, ,FMG,"Fort Morgan, CO", ,"Ft Morgan,Ft. Morgan,Morgan",2017-11-06T07:04:53,-103.802818,40.247169,-103.802818000298,40.24716900002
280,Station Building (with waiting room),TRAIN,94536,CA,Fremont, ,37260 Fremont Boulevard,Amtrak/ACE Station,FMT,"Fremont, CA",Amtrak/ACE Station, ,2019-02-14T04:03:18,-122.007496,37.559093,-122.007496000158,37.5590930002453
281,Station Building (with waiting room),TRAIN,93721,CA,Fresno, ,2650 Tulare Street, ,FNO,"Fresno, CA", , ,2018-09-29T04:04:50,-119.782926,36.738457,-119.782925999565,36.7384569999896
282,Platform with Shelter,TRAIN,01702,MA,Framingham, ,417 Waverly Street, ,FRA,"Framingham, MA", , ,2018-09-14T04:04:55,-71.420033,42.275993,-71.4200330000108,42.2759930003002
283,Station Building (with waiting room),BUS,21704,MD,Frederick, ,100 South East Street,Transit Center/MARC Station,FRC,"Frederick, MD",Transit Center/MARC Station, ,2019-02-14T04:03:19,-77.40558,39.411855,-77.4055800003773,39.4118550000533
284,Station Building (with waiting room),TRAIN,04032,ME,Freeport, ,23 Depot Road, ,FRE,"Freeport, ME", , ,2017-11-06T07:04:54,-70.102358,43.855035,-70.1023580002895,43.8550349997767
285,Curbside Bus Stop only (no shelter),BUS,80421,CO,Fairplay, ,640 US Highway 285, ,FRP,"Fairplay, CO", , ,2018-07-13T04:04:39,-105.991608,39.225516,-105.991607999818,39.2255159997974
286,Curbside Bus Stop only (no shelter),BUS,21705,MD,Frederick, ,1341 Hughes Ford Road,Frederick Municipal Airport,FRR,"Frederick, MD",Frederick Municipal Airport, ,2018-09-27T04:05:04,-77.382299,39.416261,-77.3822990000643,39.4162609998299
287,Curbside Bus Stop only (no shelter),BUS,94538,CA,Fremont, ,42801 Mission Blvd,VTA Transit Bus Stop,FRT,"Fremont, CA",VTA Transit Bus Stop, ,2018-09-29T04:04:50,-121.92364,37.53915,-121.923640000338,37.5391499997497
288,Curbside Bus Stop only (no shelter),BUS,21532,MD,Frostburg, ,101 Braddock Road,Frostburg State University,FSB,"Frostburg, MD",Frostburg State University, ,2018-09-27T07:04:47,-78.933168,39.6489,-78.9331680003601,39.6489000003313
289,Curbside Bus Stop only (no shelter),BUS,93623,CA,Fish Camp, ,1122 Highway 41, ,FSH,"Fish Camp, CA", , ,2018-02-18T04:04:48,-119.635019,37.472699,-119.635018999788,37.4726989997596
290,Curbside Bus Stop only (no shelter),BUS,97439,OR,Florence, ,93100 Oregon Coast Highway,Carl G. Washburne State Park,FSP,"Florence, OR",Carl G. Washburne State Park,"Washburne State Park,Carl Washburne State Park",2021-10-15T07:04:07,-124.1156,44.160514,-124.115599999985,44.1605140002434
291,Curbside Bus Stop only (no shelter),BUS,95540,CA,Fortuna, ,719 South Fortuna Blvd, ,FTA,"Fortuna, CA", , ,2018-09-29T04:04:50,-124.146188,40.583672,-124.146188000126,40.5836719999624
292,Platform with Shelter,TRAIN,12883,NY,Ticonderoga, ,NYS Hwy 74 and Sandy Redoubt, ,FTC,"Ticonderoga, NY", , ,2018-09-14T04:04:55,-73.389681,43.853788,-73.389680999993,43.8537880002561
293,Station Building (with waiting room),TRAIN,33312,FL,Fort Lauderdale, ,200 Southwest 21st Terrace, ,FTL,"Fort Lauderdale, FL", ,"Ft Lauderdale,Ft. Lauderdale,Lauderdale",2017-11-06T07:04:55,-80.17,26.119256,-80.1700000000293,26.1192559996403
294,Curbside Bus Stop only (no shelter),BUS,33917,FL,Fort Myers, ,17308 Park 78 Drive, ,FTM,"Fort Myers, FL", ,"Ft Myers,Ft. Myers,Myers",2018-09-26T07:04:45,-81.81506,26.714124,-81.8150599998102,26.7141240001707
295,Station Building (with waiting room),TRAIN,42041,KY,Fulton, ,21 Newton Road, ,FTN,"Fulton, KY", , ,2017-11-12T04:05:44,-88.888772,36.525704,-88.8887720001851,36.5257040002376
296,Station Building (with waiting room),TRAIN,76102,TX,Fort Worth, ,1001 Jones Street,Central Station,FTW,"Fort Worth, TX",Central Station,"Ft Worth,Ft. Worth,Worth",2023-02-01T02:06:32,-97.326673,32.752563,-97.3266730003283,32.7525630003499
297,Station Building (with waiting room),TRAIN,92832,CA,Fullerton, ,120 East Santa Fe Avenue, ,FUL,"Fullerton, CA", , ,2018-09-14T04:04:55,-117.922849,33.868969,-117.922849000251,33.8689690002625
298,Platform only (no shelter),TRAIN,95054,CA,Santa Clara, ,5099 Stars and Stripes Drive,Great America,GAC,"Santa Clara, CA",Great America, ,2018-09-14T04:04:55,-121.967003,37.406778,-121.967002999626,37.4067779999306
299,Station Building (with waiting room),TRAIN,28054,NC,Gastonia, ,350 Hancock Street, ,GAS,"Gastonia, NC", , ,2017-11-12T04:05:45,-81.162366,35.269186,-81.1623660000242,35.2691859996536
300,Station Building (with waiting room),TRAIN,61401,IL,Galesburg, ,225 South Seminary Street, ,GBB,"Galesburg, IL", , ,2017-11-12T04:05:45,-90.364106,40.944678,-90.3641059999156,40.9446780000142
301,Station Building (with waiting room),BUS,27350,NC,Goldsboro, ,103 North Carolina Street, ,GBO,"Goldsboro, NC", , ,2018-09-27T07:04:47,-78.003337,35.385675,-78.0033369998552,35.3856749997706
302,Curbside Bus Stop only (no shelter),BUS,95542,CA,Garberville, ,924 Redwood Drive, ,GBV,"Garberville, CA", , ,2018-04-05T04:04:19,-123.79523,40.097719,-123.795229999675,40.0977190002269
303,Platform with Shelter,BUS,54302,WI,Green Bay, ,901 University Avenue,Transportation Center,GBY,"Green Bay, WI",Transportation Center, ,2019-07-03T07:03:26,-88.00276,44.517053,-88.0027599999761,44.5170529998793
304,Curbside Bus Stop only (no shelter),BUS,86023,AZ,Grand Canyon Village, ,202 Village Loop Drive,Maswik Lodge,GCB,"Grand Canyon Village, AZ",Maswik Lodge, ,2019-02-14T04:03:19,-112.144648,36.05364,-112.144648000441,36.0536400000736
305,Station Building (with waiting room),TRAIN,67846,KS,Garden City, ,100 North 7th Street, ,GCK,"Garden City, KS", , ,2018-09-14T04:04:56,-100.873256,37.964365,-100.873256000184,37.9643650002865
306,Station Building (with waiting room),TRAIN,86023,AZ,Grand Canyon Village, ,2 North Village Loop,Grand Canyon Railway Depot,GCN,"Grand Canyon Village, AZ",Grand Canyon Railway Depot, ,2019-02-14T07:03:20,-112.136845,36.056867,-112.136845000321,36.0568669996662
307,Platform with Shelter,TRAIN,91204,CA,Glendale, ,400 West Cerritos Avenue, ,GDL,"Glendale, CA", , ,2018-09-14T04:04:57,-118.258868,34.123706,-118.25886799956,34.1237059998591
308,Curbside Bus Stop only (no shelter),BUS,99224,WA,Spokane, ,9000 West Airport Drive,Spokane Airport,GEG,"Spokane, WA",Spokane Airport, ,2018-09-28T07:04:42,-117.536887,47.626646,-117.536887000301,47.6266460001421
309,Station Building (with waiting room),TRAIN,01301,MA,Greenfield, ,12 Olive Street, ,GFD,"Greenfield, MA", , ,2018-09-14T04:04:57,-72.600765,42.585458,-72.600764999981,42.5854579999907
310,Station Building (with waiting room),TRAIN,58201,ND,Grand Forks, ,5555 DeMers Avenue, ,GFK,"Grand Forks, ND", , ,2017-11-12T04:05:49,-97.110835,47.917522,-97.1108349999137,47.9175220001664
311,Station Building (with waiting room),TRAIN,59230,MT,Glasgow, ,424 1st  Avenue South, ,GGW,"Glasgow, MT", , ,2017-11-12T04:05:50,-106.636188,48.194854,-106.636188000038,48.1948539999959
312,Curbside Bus Stop only (no shelter),BUS,97301,OR,Gearhart, ,3453 U.S. Highway 101 North,Dollar General Store,GHN,"Gearhart - Northbound, OR",Dollar General Store, ,2019-06-19T07:03:23,-123.911654,46.025188,-123.91165399971,46.0251880001782
313,Curbside Bus Stop only (no shelter),BUS,97301,OR,Gearhart, ,3518 U.S. Highway 101 North,Gearhart Bowl & Fultano's Pizza,GHT,"Gearhart - Southbound, OR",Gearhart Bowl & Fultano's Pizza, ,2019-06-19T07:03:23,-123.912012,46.025529,-123.91201199991,46.025528999862
314,Curbside Bus Stop only (no shelter),BUS,97737,OR,Gilchrist, ,138303 Highway 97, ,GIL,"Gilchrist, OR", , ,2021-07-15T04:04:11,-121.687175,43.477437,-121.687175000252,43.4774370001611
315,Station Building (with waiting room),TRAIN,81501,CO,Grand Junction, ,339 South 1st Street, ,GJT,"Grand Junction, CO", , ,2017-11-06T07:04:57,-108.569929,39.064375,-108.569928999624,39.0643749997222
316,Station Building (with waiting room),TRAIN,76240,TX,Gainesville, ,605 East California Street, ,GLE,"Gainesville, TX", , ,2017-11-12T04:05:51,-97.140896,33.625159,-97.1408959997993,33.6251589998189
317,Platform with Shelter,TRAIN,60938,IL,Gilman, ,800 US Highway 24 West, ,GLM,"Gilman, IL", , ,2017-11-12T04:05:51,-87.998055,40.752547,-87.9980550000136,40.7525469997241
318,Station Building (with waiting room),TRAIN,60025,IL,Glenview, ,1116 Depot Street, ,GLN,"Glenview, IL", , ,2017-11-12T04:05:51,-87.805562,42.075038,-87.8055620003844,42.0750380000266
319,Platform only (no shelter),TRAIN,87301,NM,Gallup, ,201 East Highway 66, ,GLP,"Gallup, NM", , ,2022-11-21T10:50:00,-108.740548,35.529176,-108.740547999627,35.5291760000324
320,Curbside Bus Stop only (no shelter),BUS,95020,CA,Gilroy, ,7250 Monterey Street, ,GLY,"Gilroy, CA", , ,2018-09-21T04:04:50,-121.566798,37.003961,-121.566797999742,37.0039610003506
321,Platform with Shelter,TRAIN,L3M 3H6,ON,Grimsby, ,99 Ontario Street, ,GMS,"Grimsby, ON", , ,2017-11-12T04:05:53,-79.557945,43.195949,-79.5579450003659,43.1959490003012
322,Platform with Shelter,TRAIN,15601,PA,Greensburg, ,Harrison Avenue and Seton Hill Drive,Amtrak Station,GNB,"Greensburg, PA",Amtrak Station, ,2019-02-14T04:03:20,-79.546893,40.304986,-79.5468929995776,40.3049860001589
323,Station Building (with waiting room),BUS,32609,FL,Gainesville, ,2340 North Main Street, ,GNF,"Gainesville, FL", , ,2023-07-28T02:06:45,-82.323379,29.673652,-82.3233790003443,29.6736520003352
324,Curbside Bus Stop only (no shelter),BUS,15601,PA,Greensburg, ,41 Bell Way,Westmoreland Transit Center,GNG,"Greensburg, PA",Westmoreland Transit Center, ,2019-02-14T04:03:20,-79.54705,40.302773,-79.5470499999365,40.3027729998342
325,Station Building (with waiting room),TRAIN,30501,GA,Gainesville, ,116 Industrial Boulevard, ,GNS,"Gainesville, GA", , ,2017-11-12T04:05:54,-83.819694,34.288897,-83.8196939997484,34.2888969997996
326,Platform only (no shelter),BUS,97439,OR,Florence, ,1950 21st St,Grocery Outlet Florence,GOF,"Florence, OR",Grocery Outlet Florence, ,2021-02-23T07:04:08,-124.099324,43.984965,-124.099324000274,43.9849650001919
327,Curbside Bus Stop only (no shelter),BUS,97028,OR,Government Camp, ,Milepost 54 Mount Hood Highway, ,GOV,"Government Camp, OR", , ,2022-03-04T07:04:02,-121.744822,45.302445,-121.74482200038,45.3024450001751
328,Station Building (with waiting room),TRAIN,59434,MT,East Glacier Park, ,400 Highway 49 North, ,GPK,"East Glacier Park, MT", ,"glacier,browning",2017-11-06T07:04:59,-113.219523,48.442333,-113.219522999844,48.4423330000628
329,Station Building (with waiting room),TRAIN,80446,CO,Granby, ,438 Railroad Avenue, ,GRA,"Granby, CO", , ,2017-11-12T04:05:55,-105.935503,40.084188,-105.935503000096,40.0841879999807
330,Curbside Bus Stop only (no shelter),BUS,97347,OR,Grand Ronde, ,9605 Grand Ronde Rd,Community Center,GRC,"Grand Ronde, OR",Community Center, ,2020-07-10T07:05:08,-123.614009,45.074259,-123.614009000044,45.0742589998862
331,Station Building (with waiting room),BUS,80631,CO,Greeley, ,101 11th Avenue, ,GRE,"Greeley, CO", , ,2019-06-12T07:03:26,-104.697745,40.433716,-104.697744999964,40.4337159996961
332,Curbside Bus Stop only (no shelter),BUS,97080,OR,Gresham, ,1200 NE 8th Street, ,GRH,"Gresham, OR", , ,2021-05-21T04:04:06,-122.418117,45.501806,-122.418116999898,45.5018059999313
333,Platform with Shelter,TRAIN,84525,UT,Green River, ,250 South Broadway, ,GRI,"Green River, UT", , ,2019-12-03T04:03:15,-110.165228,38.992039,-110.165228000136,38.9920390001165
334,Curbside Bus Stop only (no shelter),BUS,97347,OR,Grand Ronde, ,27100 Salmon River Hwy,Spirit Mountain Casino,GRM,"Grand Ronde, OR",Spirit Mountain Casino,Spirit Mountain Casino,2020-07-10T07:05:08,-123.581015,45.058588,-123.581014999857,45.0585880000822
335,Station Building (with waiting room),BUS,27834,NC,Greenville, ,600 South Pitt Street, ,GRN,"Greenville, NC", ,"East Carolina University,Shaw University,Kinston",2018-09-15T07:04:40,-77.377078,35.610198,-77.3770779997178,35.6101979998358
336,Station Building (with waiting room),TRAIN,27401,NC,Greensboro, ,236 East Washington Street, ,GRO,"Greensboro, NC", , ,2018-09-14T04:04:58,-79.78708,36.069797,-79.7870800001601,36.0697970003065
337,Station Building (with waiting room),TRAIN,49503,MI,Grand Rapids, ,440 Century Avenue SW, ,GRR,"Grand Rapids, MI", , ,2018-09-29T04:04:51,-85.672447,42.955788,-85.6724470004158,42.9557880001222
338,Station Building (with waiting room),TRAIN,29601,SC,Greenville, ,1120 West Washington Street, ,GRV,"Greenville, SC", , ,2017-11-12T04:05:56,-82.413486,34.858256,-82.4134859998331,34.8582559998755
339,Station Building (with waiting room),BUS,46402,IN,Gary, ,100 West 4th Avenue, ,GRY,"Gary, IN", , ,2018-09-26T04:04:53,-87.338949,41.604269,-87.3389490000028,41.6042690002076
340,Station Building (with waiting room),TRAIN,81601,CO,Glenwood Springs, ,413 7th Street, ,GSC,"Glenwood Springs, CO", , ,2017-11-12T04:05:57,-107.323218,39.547903,-107.3232180004,39.5479030000084
341,Curbside Bus Stop only (no shelter),BUS,95543,CA,Gasquet, ,10350 Highway 199, ,GSQ,"Gasquet, CA", , ,2018-09-21T04:04:50,-123.969462,41.84561,-123.969462000395,41.845610000079
342,Platform with Shelter,TRAIN,93117,CA,Goleta, ,25 South La Patera Lane, ,GTA,"Goleta, CA", , ,2017-11-12T04:05:57,-119.843092,34.437729,-119.843091999718,34.4377290003119
343,Curbside Bus Stop only (no shelter),BUS,97526,OR,Grants Pass, ,132 Northeast B Street, ,GTP,"Grants Pass, OR", , ,2024-04-20T02:07:37,-123.32402,42.44302,-123.324020000184,42.4430200000753
344,Curbside Bus Stop only (no shelter),BUS,21536,MD,Grantsville, ,3000 Chestnut Ridge Road, ,GTV,"Grantsville, MD", , ,2018-09-27T04:05:06,-79.100326,39.692354,-79.1003259999826,39.692354000161
345,Station Building (with waiting room),TRAIN,93434,CA,Guadalupe, ,330 Guadalupe Street, ,GUA,"Guadalupe, CA", ,santa maria,2018-09-14T07:04:48,-120.57341,34.962927,-120.573409999923,34.9629269996781
346,Station Building (with waiting room),TRAIN,06437,CT,Guilford, ,325 Old Whitfield Street, ,GUI,"Guilford, CT", , ,2024-08-18T02:00:04,-72.67361,41.275369,-72.6736099999195,41.2753689998065
347,Curbside Bus Stop only (no shelter),BUS,81230,CO,Gunnison, ,411 East Tomichi Street, ,GUN,"Gunnison, CO", , ,2024-07-12T02:00:02,-106.922057,38.544173,-106.922056999916,38.5441729998318
348,Platform with Shelter,TRAIN,93433,CA,Grover Beach, ,180 West Grand Avenue, ,GVB,"Grover Beach, CA", , ,2020-03-06T04:11:20,-120.629266,35.12126,-120.629266000123,35.1212599999118
349,Curbside Bus Stop only (no shelter),BUS,83530,ID,Grangeville, ,901 West Main Street, ,GVI,"Grangeville, ID", , ,2018-09-26T04:04:53,-116.131574,45.927188,-116.131573999988,45.9271880000809
350,Curbside Bus Stop only (no shelter),BUS,13642,NY,Gouverneur, ,49 East Main Street, ,GVR,"Gouverneur, NY", , ,2018-06-22T07:04:36,-75.467999,44.335612,-75.4679990002939,44.3356120002617
351,Station Building (with waiting room),TRAIN,38930,MS,Greenwood, ,Carrollton Avenue and East Gibson Street, ,GWD,"Greenwood, MS", , ,2017-11-12T04:06:02,-90.176454,33.517159,-90.1764539997929,33.5171589996537
352,Curbside Bus Stop only (no shelter),BUS,49738,MI,Grayling, ,2615 South I-75 Business Loop, ,GYG,"Grayling, MI", , ,2018-09-27T04:05:07,-84.708063,44.64765,-84.7080629995999,44.6476499997853
353,Curbside Bus Stop only (no shelter),BUS,49734,MI,Gaylord, ,1041 West Main Street, ,GYL,"Gaylord, MI", , ,2018-09-27T04:05:07,-84.691914,45.027057,-84.6919140001103,45.0270569999025
354,Curbside Bus Stop only (no shelter),BUS,21740,MD,Hagerstown, ,123 West Franklin Street, ,HAG,"Hagerstown, MD", , ,2018-09-27T04:05:07,-77.722497,39.64466,-77.7224969998048,39.6446600002142
355,Station Building (with waiting room),TRAIN,28345,NC,Hamlet, ,2 Main Street, ,HAM,"Hamlet, NC", , ,2018-09-14T04:04:58,-79.699218,34.883663,-79.6992180001608,34.8836630000814
356,Station Building (with waiting room),TRAIN,17101,PA,Harrisburg, ,4th and Chestnut Streets, ,HAR,"Harrisburg, PA", , ,2017-11-12T04:06:04,-76.878256,40.26205,-76.8782560000456,40.2620500001456
357,Station Building (with waiting room),TRAIN,68901,NE,Hastings, ,501 West First Street, ,HAS,"Hastings, NE", , ,2017-11-12T04:06:04,-98.387534,40.584276,-98.3875340001267,40.584276000058
358,Station Building (with waiting room),TRAIN,59501,MT,Havre, ,235 Main Street, ,HAV,"Havre, MT", , ,2017-11-06T07:05:01,-109.678352,48.554465,-109.678352000131,48.5544649999225
359,Platform with Shelter,TRAIN,94541,CA,Hayward, ,22555 Meekland Avenue, ,HAY,"Hayward, CA", , ,2017-11-12T04:06:04,-122.099277,37.665997,-122.099277000298,37.6659969997141
360,Platform with Shelter,TRAIN,39083,MS,Hazlehurst, ,North Ragsdale Avenue and East Conway Street, ,HAZ,"Hazlehurst, MS", , ,2017-11-12T04:06:05,-90.394347,31.86132,-90.3943469997262,31.8613200002923
361,Station Building (with waiting room),TRAIN,39401,MS,Hattiesburg, ,308 Newman Street, ,HBG,"Hattiesburg, MS", , ,2018-08-15T07:04:57,-89.286463,31.326921,-89.2864630000677,31.3269209999307
362,Curbside Bus Stop only (no shelter),BUS,95448,CA,Healdsburg, ,149 Healdsburg Avenue, ,HEA,"Healdsburg, CA", , ,2018-07-14T04:04:40,-122.869456,38.606841,-122.869456000301,38.6068409996813
363,Station Building (with waiting room),TRAIN,65041,MO,Hermann, ,301 Wharf Street, ,HEM,"Hermann, MO", , ,2017-11-06T07:05:02,-91.432558,38.707283,-91.4325580001217,38.707283000292
364,Station Building (with waiting room),TRAIN,84526,UT,Helper, ,1 Depot Street, ,HER,"Helper, UT", , ,2017-11-12T04:06:06,-110.853894,39.684036,-110.853893999717,39.684036000269
365,Station Building (with waiting room),TRAIN,06103,CT,Hartford, ,One Union Place, ,HFD,"Hartford, CT", , ,2017-11-12T04:06:06,-72.681314,41.768761,-72.6813140003052,41.7687609997061
366,Platform with Shelter,TRAIN,25425,WV,Harpers Ferry, ,Potomac Street & Shenandoah Street, ,HFY,"Harpers Ferry, WV", , ,2018-09-14T04:04:59,-77.731078,39.324452,-77.7310780002495,39.3244520001604
367,Station Building (with waiting room),TRAIN,16652,PA,Huntingdon, ,Fourth and Allegheny Streets, ,HGD,"Huntingdon, PA", , ,2017-11-12T04:06:07,-78.01178,40.483665,-78.0117800002077,40.4836649996833
368,Curbside Bus Stop only (no shelter),BUS,49931,MI,Houghton, ,Townsend Drive and Hubbell Street,Michigan Tech University,HGH,"Houghton, MI",Michigan Tech University, ,2018-09-27T07:04:48,-88.54963,47.118726,-88.5496299997055,47.1187260001298
369,Curbside Bus Stop only (no shelter),BUS,48629,MI,Houghton Lake, ,9391 West Lake City Road, ,HGL,"Houghton Lake, MI", , ,2018-09-27T04:05:08,-84.80111,44.335421,-84.8011099999607,44.3354210002566
370,Curbside Bus Stop only (no shelter),BUS,13655,NY,Hogansburg, ,935 State Highway 37, ,HGS,"Hogansburg, NY", , ,2018-06-22T07:04:36,-74.640035,44.966824,-74.6400350000708,44.9668239999178
371,Platform with Shelter,TRAIN,01832,MA,Haverhill, ,Washington Street at Railroad Square, ,HHL,"Haverhill, MA", , ,2017-11-12T04:06:08,-71.086375,42.773297,-71.0863749996434,42.7732970000705
372,Station Building (with waiting room),TRAIN,25951,WV,Hinton, ,100 Second Avenue, ,HIN,"Hinton, WV", , ,2018-09-14T04:04:59,-80.892232,37.675037,-80.8922320002574,37.6750369999285
373,Curbside Bus Stop only (no shelter),BUS,95531,CA,Crescent City, ,2100 Highway 199, ,HIO,"Hiouchi, CA", ,Crescent City,2018-09-26T04:04:54,-124.072165,41.792839,-124.072164999829,41.7928390000599
374,Curbside Bus Stop only (no shelter),BUS,49930,MI,Hancock, ,125 Quincy Street, ,HKM,"Hancock, MI", , ,2018-09-27T04:05:08,-88.580295,47.126982,-88.5802949998387,47.1269820000714
375,Curbside Bus Stop only (no shelter),BUS,97006,OR,Hillsboro, ,2435 NE Town Center Drive, ,HLB,"Hillsboro, OR", , ,2021-09-10T07:03:52,-122.866305,45.537276,-122.86630500044,45.537275999697
376,Platform only (no shelter),TRAIN,68949,NE,Holdrege, ,200 East Avenue, ,HLD,"Holdrege, NE", , ,2021-06-16T07:04:08,-99.370077,40.436013,-99.370076999745,40.436013000202
377,Platform with Shelter,TRAIN,01041,MA,Holyoke, ,74 Main Street, ,HLK,"Holyoke, MA", , ,2017-11-06T07:05:03,-72.602309,42.204156,-72.6023090000368,42.2041560002467
378,Station Building (with waiting room),TRAIN,70401,LA,Hammond, ,404 N.W. Railroad Avenue, ,HMD,"Hammond, LA", , ,2017-11-12T04:06:10,-90.462169,30.50718,-90.4621689996851,30.5071799999615
379,Station Building (with waiting room),TRAIN,46320,IN,Hammond, ,1135 North Calumet Avenue, ,HMI,"Hammond-Whiting, IN", ,Whiting,2017-11-06T07:05:03,-87.506511,41.691155,-87.5065109998563,41.6911549998204
380,Station Building (with waiting room),TRAIN,60430,IL,Homewood, ,18015 Park Avenue, ,HMW,"Homewood, IL", , ,2017-11-12T04:06:10,-87.668685,41.562446,-87.6686849998572,41.5624460003309
381,Station Building (with waiting room),TRAIN,93230,CA,Hanford, ,200 Santa Fe Avenue #A, ,HNF,"Hanford, CA", , ,2017-11-12T04:06:11,-119.651816,36.326078,-119.651815999906,36.3260779996663
382,Curbside Bus Stop only (no shelter),BUS,21750,MD,Hancock, ,434 East Main Street, ,HNK,"Hancock, MD", , ,2023-06-14T02:06:44,-78.154315,39.695275,-78.154315000026,39.6952750001774
383,Station Building (with waiting room),BUS,77011,TX,Houston, ,7000 Harrisburg Blvd,Greyhound Terminal,HOG,"Houston, TX",Greyhound Terminal, ,2023-12-14T07:00:00,-95.302025,29.735485,-95.302025000289,29.7354849999973
384,Station Building (with waiting room),TRAIN,33021,FL,Hollywood, ,3001 Hollywood Boulevard, ,HOL,"Hollywood, FL", , ,2017-11-12T04:06:12,-80.167884,26.011641,-80.1678840004112,26.0116409998994
385,Station Building (with waiting room),TRAIN,49423,MI,Holland, ,171 Lincoln Avenue, ,HOM,"Holland, MI", , ,2017-11-12T04:06:12,-86.096553,42.791096,-86.0965529998555,42.791095999878
386,Station Building (with waiting room),BUS,97031,OR,Hood River, ,110 Railroad Street, ,HOO,"Hood River, OR", ,"Bingen-White Salmon,White Salmon",2018-09-27T07:04:50,-121.51162,45.709641,-121.511620000308,45.7096409998523
387,Station Building (with waiting room),TRAIN,71801,AR,Hope, ,100 East Division Street, ,HOP,"Hope, AR", , ,2017-11-06T07:05:04,-93.592247,33.668913,-93.5922469996561,33.6689129996349
388,Station Building (with waiting room),TRAIN,77002,TX,Houston, ,902 Washington Avenue,Amtrak Station,HOS,"Houston, TX",Amtrak Station, ,2018-12-22T07:03:26,-95.367526,29.767245,-95.3675259996921,29.7672450001916
389,Station Building (with waiting room),TRAIN,27260,NC,High Point, ,100 West High Avenue, ,HPT,"High Point, NC", , ,2017-11-12T04:06:14,-80.006097,35.957128,-80.0060970000247,35.9571279997779
390,Curbside Bus Stop only (no shelter),BUS,97906,OR,Harper, ,3459 U.S. Highway 20, ,HRP,"Harper, OR", , ,2018-09-27T04:05:09,-117.605297,43.855307,-117.605296999715,43.8553070000233
391,Curbside Bus Stop only (no shelter),BUS,95521,CA,Arcata, ,L K Wood Boulevard,Cal Poly Humboldt,HSU,"Arcata, CA",Cal Poly Humboldt,Humboldt State University,2022-03-04T07:04:02,-124.081496,40.873347,-124.081496000111,40.8733469999165
392,Platform with Shelter,TRAIN,08037,NJ,Hammonton, ,Egg Harbor Road & Line Street, ,HTN,"Hammonton, NJ", , ,2018-09-27T04:05:09,-74.79934,39.631317,-74.7993400002431,39.6313170002096
393,Station Building (with waiting room),TRAIN,12534,NY,Hudson, ,69 South Front Street, ,HUD,"Hudson, NY", , ,2017-11-12T04:06:14,-73.797729,42.253891,-73.7977290001797,42.2538910000798
394,Station Building (with waiting room),TRAIN,25701,WV,Huntington, ,1050 8th Avenue, ,HUN,"Huntington, WV", , ,2017-11-12T04:06:15,-82.439735,38.41582,-82.4397349997088,38.41581999988
395,Station Building (with waiting room),TRAIN,67501,KS,Hutchinson, ,North Walnut Street & East 3rd Avenue, ,HUT,"Hutchinson, KS", , ,2017-11-12T04:06:15,-97.931522,38.055712,-97.9315220004467,38.0557120000209
396,Curbside Bus Stop only (no shelter),BUS,28532,NC,Havelock, ,201 Tourist Center Drive, ,HVL,"Havelock, NC", , ,2018-09-27T07:04:50,-76.926115,34.891191,-76.9261149999569,34.8911909999923
397,Curbside Bus Stop only (no shelter),BUS,49329,MI,Howard City, ,117 West Williams Street, ,HWC,"Howard City, MI", , ,2018-09-27T04:05:09,-85.469631,43.398305,-85.4696309999193,43.3983050002155
398,Curbside Bus Stop only (no shelter),BUS,92201,CA,Indio, ,82120 Highway 111, ,IDO,"Indio, CA", , ,2018-09-29T04:04:52,-116.233132,33.714863,-116.233131999575,33.7148630001898
399,Platform only (no shelter),TRAIN,64050,MO,Independence, ,600 South Grand Avenue, ,IDP,"Independence, MO", , ,2024-09-19T02:06:47,-94.429711,39.086917,-94.4297110002157,39.0869170002418
400,Curbside Bus Stop only (no shelter),BUS,15705,PA,Indiana, ,711 Pratt Drive,Indiana University of Penn,INA,"Indiana, PA",Indiana University of Penn, ,2019-09-05T07:03:22,-79.160006,40.61314,-79.1600059998879,40.6131399998362
401,Station Building (with waiting room),TRAIN,46225,IN,Indianapolis, ,350 South Illinois Street, ,IND,"Indianapolis, IN", , ,2017-11-06T07:05:06,-86.160423,39.761984,-86.1604230000624,39.7619840002784
402,Station Building (with waiting room),TRAIN,92618,CA,Irvine, ,15215 Barranca Parkway, ,IRV,"Irvine, CA", , ,2018-09-14T04:04:59,-117.733695,33.656771,-117.733694999905,33.6567710001309
403,Station Building (with waiting room),TRAIN,39201,MS,Jackson, ,300 West Capitol Street, ,JAN,"Jackson, MS", , ,2017-11-06T07:05:06,-90.190936,32.300808,-90.1909360001013,32.3008079999497
404,Station Building (with waiting room),TRAIN,32209,FL,Jacksonville, ,3570 Clifford Lane, ,JAX,"Jacksonville, FL", , ,2017-11-06T07:05:06,-81.723893,30.365601,-81.7238929999643,30.365600999981
405,Platform with Shelter,TRAIN,65101,MO,Jefferson City, ,101 Jefferson Street, ,JEF,"Jefferson City, MO", , ,2019-10-03T04:03:15,-92.169906,38.57887,-92.1699060001447,38.5788700003365
406,Station Building (with waiting room),BUS,28540,NC,Jacksonville, ,1300 North Marine Boulevard, ,JNC,"Jacksonville, NC", ,Swansboro,2022-07-15T07:04:17,-77.40727,34.76693,-77.407270000023,34.7669299997856
407,Curbside Bus Stop only (no shelter),BUS,93529,CA,June Lake, ,Junction U.S. Highway 395 & State Highway 158, ,JNL,"June Lake, CA", , ,2020-02-07T04:11:32,-119.053991,37.812766,-119.053990999758,37.8127659996636
408,Curbside Bus Stop only (no shelter),BUS,53038,WI,Johnson Creek, ,575 Linmar Lane, ,JOC,"Johnson Creek, WI", , ,2022-03-16T07:04:11,-88.763099,43.089988,-88.7630989998838,43.0899879998307
409,Station Building (with waiting room),TRAIN,60432,IL,Joliet, ,90 East Jefferson Street, ,JOL,"Joliet, IL", , ,2018-09-29T04:04:52,-88.078731,41.524647,-88.0787309996612,41.5246470002791
410,Station Building (with waiting room),TRAIN,31545,GA,Jesup, ,176 Northwest Broad Street, ,JSP,"Jesup, GA", , ,2017-11-12T04:06:49,-81.882173,31.605589,-81.8821729999395,31.6055889996295
411,Station Building (with waiting room),TRAIN,15901,PA,Johnstown, ,47 Walnut Street, ,JST,"Johnstown, PA", , ,2017-11-12T04:06:49,-78.921996,40.329689,-78.9219959999212,40.3296890002493
412,Curbside Bus Stop only (no shelter),BUS,97911,OR,Juntura, ,5838 U.S. Highway 20, ,JTR,"Juntura, OR", , ,2018-07-12T07:04:31,-118.080077,43.745252,-118.080077000265,43.7452519998236
413,Station Building (with waiting room),BUS,53545,WI,Janesville, ,3120 North Pontiac Drive, ,JVL,"Janesville, WI", , ,2018-09-28T04:04:50,-88.988186,42.719995,-88.9881859996666,42.7199950002997
414,Station Building (with waiting room),TRAIN,49201,MI,Jackson, ,501 East Michigan Avenue, ,JXN,"Jackson, MI", , ,2017-11-12T04:06:50,-84.39967,42.248113,-84.3996699998174,42.2481130000062
415,Station Building (with waiting room),TRAIN,49007,MI,Kalamazoo, ,459 North Burdick Street, ,KAL,"Kalamazoo, MI", , ,2017-11-12T04:06:50,-85.584018,42.295255,-85.5840179999788,42.2952550003258
416,Station Building (with waiting room),TRAIN,28081,NC,Kannapolis, ,201 South Main Street, ,KAN,"Kannapolis, NC", , ,2017-11-11T04:06:15,-80.624928,35.496172,-80.624927999961,35.4961720001307
417,Station Building (with waiting room),TRAIN,64108,MO,Kansas City, ,30 West Pershing Road,Union Station,KCY,"Kansas City, MO",Union Station,Union Station,2018-09-14T07:04:48,-94.585129,39.084576,-94.5851290000351,39.0845760003357
418,Station Building (with waiting room),TRAIN,61443,IL,Kewanee, ,210 West Third Street, ,KEE,"Kewanee, IL", , ,2018-09-14T04:05:00,-89.927544,41.245765,-89.9275440002722,41.2457650001478
419,Station Building (with waiting room),TRAIN,98626,WA,Kelso, ,501 South First Avenue, ,KEL,"Kelso-Longview, WA", ,Longview,2017-11-06T07:05:08,-122.913016,46.142264,-122.91301600013,46.1422640002603
420,Station Building (with waiting room),TRAIN,97601,OR,Klamath Falls, ,1600 Oak Avenue, ,KFS,"Klamath Falls, OR", , ,2017-11-06T07:05:08,-121.771952,42.225509,-121.771951999614,42.2255089996863
421,Curbside Bus Stop only (no shelter),BUS,93930,CA,King City, ,1350 Broadway Circle, ,KGC,"King City, CA", , ,2018-09-29T04:04:52,-121.136344,36.202547,-121.136343999651,36.2025469999675
422,Curbside Bus Stop only (no shelter),BUS,98346,WA,Kingston, ,11264 State Route 104,Washington State Ferry dock,KGE,"Kingston - Eastbound, WA",Washington State Ferry dock, ,2019-02-16T07:03:16,-122.496288,47.796069,-122.496287999765,47.796068999784
423,Curbside Bus Stop only (no shelter),BUS,49649,MI,Kingsley, ,119 East Main Street (Hwy 113), ,KGS,"Kingsley, MI", , ,2018-09-27T04:05:10,-85.535201,44.584797,-85.5352009998176,44.5847970001221
424,Curbside Bus Stop only (no shelter),BUS,98346,WA,Kingston, ,10960 State Route 104,Henery Hardware,KGW,"Kingston - Westbound, WA",Henery Hardware, ,2019-02-16T07:03:16,-122.500484,47.802025,-122.500483999914,47.8020250000969
425,Station Building (with waiting room),BUS,76541,TX,Killeen, ,200 East Avenue C, ,KIL,"Killeen, TX", , ,2018-09-27T04:05:11,-97.728617,31.121152,-97.7286170002618,31.1211519997312
426,Station Building (with waiting room),TRAIN,02892,RI,West Kingston, ,1 Railroad Avenue, ,KIN,"Kingston, RI", , ,2018-02-18T04:04:48,-71.560597,41.483959,-71.5605969999761,41.4839590000338
427,Station Building (with waiting room),TRAIN,34741,FL,Kissimmee, ,111 East Dakin Avenue, ,KIS,"Kissimmee, FL", , ,2017-11-11T04:06:17,-81.404234,28.293835,-81.4042340000316,28.2938349998717
428,Station Building (with waiting room),TRAIN,60901,IL,Kankakee, ,199 South East Avenue, ,KKI,"Kankakee, IL", , ,2017-11-11T04:06:18,-87.86543,41.119259,-87.8654299997123,41.1192589996637
429,Curbside Bus Stop only (no shelter),BUS,05751,VT,Killington, ,228 East Mountain Road, ,KLT,"Killington, VT", , ,2018-09-27T07:04:51,-72.794305,43.627005,-72.7943050004469,43.6270049998515
430,Station Building (with waiting room),BUS,28504,NC,Kinston, ,101 East New Bern Road, ,KNC,"Kinston, NC", , ,2018-09-27T07:04:51,-77.584478,35.243706,-77.584477999803,35.2437060001867
431,Station Building (with waiting room),TRAIN,86401,AZ,Kingman, ,402 Andy Devine, ,KNG,"Kingman, AZ", , ,2017-11-11T04:06:18,-114.052816,35.188279,-114.052816000369,35.1882789999287
432,Curbside Bus Stop only (no shelter),BUS,49752,MI,Kinross Charter Twp, ,6737 M-80, ,KNS,"Kinross Charter Twp, MI", , ,2022-08-15T07:04:38,-84.506535,46.273752,-84.5065349999645,46.2737519998993
433,Curbside Bus Stop only (no shelter),BUS,21638,MD,Grasonville, ,3206 Main Street, ,KNT,"Kent Island-Grasonville, MD", ,Grasonville,2018-10-17T04:04:57,-76.240827,38.966498,-76.2408270000174,38.9664979997647
434,Station Building (with waiting room),TRAIN,29556,SC,Kingstree, ,101 East Main St., ,KTR,"Kingstree, SC", , ,2017-11-11T04:06:19,-79.829026,33.663882,-79.8290259996138,33.6638820002864
435,Curbside Bus Stop only (no shelter),BUS,12943,NY,Keene Valley, ,1770 Route 73, ,KVL,"Keene Valley, NY", , ,2018-06-22T07:04:37,-73.786232,44.188528,-73.7862320000508,44.1885279998498
436,Station Building (with waiting room),TRAIN,63122,MO,Kirkwood, ,110 West Argonne Drive, ,KWD,"Kirkwood, MO", , ,2017-11-11T04:06:20,-90.406761,38.581067,-90.4067610000972,38.5810669997627
437,Platform only (no shelter),TRAIN,15650,PA,Latrobe, ,329 McKinley Avenue,Amtrak Station,LAB,"Latrobe, PA",Amtrak Station, ,2020-10-07T04:00:01,-79.385083,40.317405,-79.3850829996249,40.3174050003341
438,Station Building (with waiting room),BUS,97850,OR,La Grande, ,2204 East Penn Avenue , ,LAE,"La Grande, OR", , ,2018-09-27T04:05:12,-118.077612,45.326472,-118.077611999769,45.3264720001228
439,Station Building (with waiting room),TRAIN,47901,IN,Lafayette, ,200 North Second Street,Amtrak Station,LAF,"Lafayette, IN",Amtrak Station, ,2019-06-12T04:03:21,-86.895901,40.419347,-86.8959009996163,40.4193469999642
440,Station Building (with waiting room),TRAIN,60525,IL,La Grange, ,25 West Burlington Avenue, ,LAG,"La Grange, IL", , ,2018-09-28T04:04:51,-87.871545,41.815634,-87.8715449998363,41.8156339997247
441,Station Building (with waiting room),TRAIN,81050,CO,La Junta, ,1 West First Street, ,LAJ,"La Junta, CO", , ,2017-11-11T04:06:21,-103.543576,37.988249,-103.543575999689,37.9882490003305
442,Station Building (with waiting room),TRAIN,33801,FL,Lakeland, ,600 East  Main Street,To/from points north,LAK,"Lakeland, FL",To/from points north, ,2018-09-14T07:04:48,-81.951874,28.045603,-81.9518739996899,28.0456030003376
443,Curbside Bus Stop only (no shelter),BUS,49946,MI,L'Anse, ,102 East Broad Street, ,LAN,"L'Anse, MI", ,Lanse,2023-06-22T02:06:26,-88.453159,46.756951,-88.4531589996724,46.7569510000269
444,Station Building (with waiting room),TRAIN,63549,MO,La Plata, ,535 North Owensby Street, ,LAP,"La Plata, MO", , ,2018-09-14T04:05:00,-92.493384,40.02922,-92.49338399976,40.0292199997067
445,Curbside Bus Stop only (no shelter),BUS,89111,NV,Las Vegas, ,5757 Wayne Newton Boulevard,McCarran International Airport,LAS,"Las Vegas, NV",McCarran International Airport,"McCarran International,McCarran Intl,McCarran Airport",2018-09-27T07:04:52,-115.148493,36.085973,-115.148493000244,36.0859729999319
446,Station Building (with waiting room),BUS,47901,IN,Lafayette, ,316 North 3rd Street,CityBus Center,LAT,"Lafayette, IN",CityBus Center, ,2023-06-09T15:08:49,-86.894444,40.420668,-86.8944439995991,40.4206679998521
447,Station Building (with waiting room),TRAIN,39440,MS,Laurel, ,230 North Maple Street, ,LAU,"Laurel, MS", , ,2017-11-11T04:06:22,-89.127933,31.692168,-89.1279329998472,31.6921679999332
448,Station Building (with waiting room),TRAIN,90012,CA,Los Angeles, ,800 North Alameda Street,Union Station,LAX,"Los Angeles, CA",Union Station,Union Station,2019-09-07T07:03:26,-118.236778,34.056177,-118.236778000024,34.0561769998625
449,Curbside Bus Stop only (no shelter),BUS,91214,CA,La Crescenta, ,6201 Honolulu Avenue, ,LCA,"La Crescenta, CA", , ,2018-09-26T04:04:56,-118.266511,34.231944,-118.266510999847,34.2319439998032
450,Station Building (with waiting room),TRAIN,70601,LA,Lake Charles, ,100 Ryan Street, ,LCH,"Lake Charles, LA", , ,2017-11-11T04:06:24,-93.217037,30.238126,-93.2170370000203,30.2381260001731
451,Station Building (with waiting room),TRAIN,62656,IL,Lincoln, ,103 North Chicago Street, ,LCN,"Lincoln, IL", , ,2017-12-07T07:04:19,-89.363051,40.148199,-89.3630510004192,40.1481990000907
452,Curbside Bus Stop only (no shelter),BUS,97367,OR,Lincoln City, ,1725 NW 44th St., ,LCO,"Lincoln City, OR", , ,2020-07-01T07:00:00,-124.010371,44.996526,-124.010370999956,44.9965260001808
453,Curbside Bus Stop only (no shelter),BUS,88005,NM,Las Cruces, ,300 West Lohman Avenue, ,LCR,"Las Cruces, NM", , ,2022-06-11T02:03:52,-106.78006,32.3055,-106.780060000223,32.3054999997969
454,Platform with Shelter,BUS,93534,CA,Lancaster, ,44812 Sierra Highway, ,LCS,"Lancaster, CA", , ,2018-09-26T04:04:57,-118.136432,34.6963,-118.136432000232,34.6962999998215
455,Curbside Bus Stop only (no shelter),BUS,04849,ME,Lincolnville, ,2512 Atlantic Highway, ,LCV,"Lincolnville, ME", , ,2018-09-26T04:04:57,-69.008642,44.282075,-69.0086420002218,44.282075000304
456,Platform with Shelter,TRAIN,88045,NM,Lordsburg, ,Center Street and East Motel Drive, ,LDB,"Lordsburg, NM", , ,2019-12-03T04:03:16,-108.707025,32.35007,-108.707025000434,32.3500699999314
457,Station Building (with waiting room),TRAIN,08083,NJ,Somerdale, ,Station Avenue & White Horse Road West, ,LDW,"Lindenwold, NJ", , ,2018-09-27T04:05:13,-75.000759,39.83383,-75.0007590000986,39.8338300002185
458,Platform with Shelter,TRAIN,64063,MO,Lee's Summit, ,217 SW Main Street, ,LEE,"Lee's Summit, MO", , ,2017-11-06T07:05:12,-94.377972,38.912623,-94.3779719996242,38.9126230001778
459,Curbside Bus Stop only (no shelter),BUS,95585,CA,Leggett, ,69501 Highway 101 North, ,LEG,"Leggett, CA", , ,2018-09-26T04:04:57,-123.727964,39.878226,-123.727964000283,39.87822599968
460,Curbside Bus Stop only (no shelter),BUS,98826,WA,Leavenworth, ,200 Ward Strasse,Wilkommen Park and Ride,LEV,"Leavenworth, WA",Wilkommen Park and Ride, ,2023-02-10T02:06:17,-120.644604,47.597678,-120.644603999675,47.5976780002356
461,Station Building (with waiting room),TRAIN,17044,PA,Lewistown, ,150 Helen Street,Amtrak Station,LEW,"Lewistown, PA",Amtrak Station, ,2019-02-14T04:03:21,-77.580047,40.588309,-77.5800470003752,40.5883090000839
462,Platform only (no shelter),TRAIN,27292,NC,Lexington, ,29 South Railroad Street, ,LEX,"Lexington Barbeque Festival, NC", , ,2018-02-18T04:04:49,-80.251565,35.820856,-80.2515650003297,35.8208559999796
463,Station Building (with waiting room),TRAIN,70501,LA,Lafayette, ,100 Lee Avenue, ,LFT,"Lafayette, LA", , ,2017-11-11T04:06:26,-92.014519,30.226548,-92.0145190002875,30.2265479998639
464,Station Building (with waiting room),BUS,J4K 2T4,QC,Longueuil, ,120 Place Charles-Lemoyne, ,LGU,"Longueuil, QC", , ,2024-08-03T02:00:00,-73.521142,45.523836,-73.52114200018,45.5238360003004
465,Station Building (with waiting room),TRAIN,59923,MT,Libby, ,100 Mineral Avenue, ,LIB,"Libby, MT", , ,2017-11-11T04:06:27,-115.54889,48.394842,-115.548889999749,48.3948419997161
466,Station Building (with waiting room),BUS,94550,CA,Livermore, ,2500 Railroad Avenue,Livermore Transit Center,LIV,"Livermore, CA",Livermore Transit Center, ,2024-04-17T09:58:04,-121.767121,37.684915,-121.767121000153,37.6849149997036
467,Station Building (with waiting room),TRAIN,33801,FL,Lakeland, ,600 East Main Street,To/from points south,LKL,"Lakeland, FL",To/from points south, ,2018-09-14T07:04:49,-81.951874,28.045603,-81.9518739996899,28.0456030003376
468,Curbside Bus Stop only (no shelter),BUS,93245,CA,Lemoore, ,300 E Street, ,LMC,"Lemoore, CA", , ,2018-09-26T07:04:47,-119.784545,36.303131,-119.784544999964,36.303130999818
469,Platform only (no shelter),TRAIN,81052,CO,Lamar, ,109 E Beech Street, ,LMR,"Lamar, CO", , ,2017-11-11T04:06:29,-102.618574,38.089623,-102.618573999893,38.0896230002548
470,Station Building (with waiting room),TRAIN,87540,NM,Lamy, ,152 Old Lamy Trail, ,LMY,"Lamy, NM", , ,2018-09-14T04:05:01,-105.879968,35.480973,-105.879968000287,35.4809729996591
471,Station Building (with waiting room),TRAIN,17602,PA,Lancaster, ,53 McGovern Avenue, ,LNC,"Lancaster, PA", , ,2017-11-11T04:06:30,-76.307714,40.054181,-76.3077140001909,40.0541809999057
472,Station Building (with waiting room),TRAIN,68508,NE,Lincoln, ,277 Pinnacle Arena Drive, ,LNK,"Lincoln, NE", , ,2017-11-11T04:06:30,-96.71317,40.815871,-96.7131699999703,40.8158709998381
473,Curbside Bus Stop only (no shelter),BUS,03251,NH,Lincoln, ,36 Main Street, ,LNN,"Lincoln, NH", , ,2018-09-27T04:05:14,-71.67471,44.038243,-71.6747100003993,44.0382429997561
474,Station Building (with waiting room),TRAIN,48823,MI,East Lansing, ,1240 South Harrison Road, ,LNS,"East Lansing, MI", ,Lansing,2017-11-06T07:05:14,-84.495962,42.718731,-84.4959619997503,42.718730999753
475,Curbside Bus Stop only (no shelter),BUS,89029,NV,Laughlin, ,2121 South Casino Drive, ,LNV,"Laughlin, NV", , ,2023-06-14T02:06:44,-114.575778,35.158568,-114.575777999972,35.1585680001829
476,Curbside Bus Stop only (no shelter),BUS,N6B 1P8,ON,London, ,352 Waterloo Street, ,LOB,"London, ON", , ,2024-07-31T02:00:00,-81.241735,42.983999,-81.2417350003407,42.9839989997768
477,Station Building (with waiting room),TRAIN,95240,CA,Lodi, ,24 South Sacramento Street, ,LOD,"Lodi, CA", , ,2017-11-11T04:06:31,-121.271887,38.133201,-121.271887000185,38.1332009999569
478,Curbside Bus Stop only (no shelter),BUS,87506,NM,Los Alamos, ,124 State Highway 4,White Rock Area,LOH,"Los Alamos, NM",White Rock Area, ,2018-09-27T04:05:15,-106.208804,35.827795,-106.208803999617,35.8277950003611
479,Curbside Bus Stop only (no shelter),BUS,93436,CA,Lompoc, ,111 South I Street, ,LOM,"Lompoc, CA", , ,2018-09-26T07:04:47,-120.459285,34.63834,-120.459284999804,34.6383399998311
480,Station Building (with waiting room),TRAIN,22079,VA,Lorton, ,8006 Lorton Road,Auto Train Station,LOR,"Lorton, VA",Auto Train Station,Washington,2017-11-06T07:05:15,-77.220942,38.708143,-77.2209419998481,38.7081430001705
481,Curbside Bus Stop only (no shelter),BUS,87544,NM,Los Alamos, ,109 Central Park Square,Central Area,LOS,"Los Alamos, NM",Central Area, ,2018-09-27T04:05:15,-106.29992,35.881799,-106.299920000308,35.8817989996985
482,Station Building (with waiting room),TRAIN,03053,NH,Londonderry, ,4 Symmes Drive, ,LOY,"Londonderry, NH", , ,2023-10-12T07:08:38,-71.377309,42.917922,-71.3773090002323,42.9179219997806
483,Station Building (with waiting room),TRAIN,48446,MI,Lapeer, ,73 Howard Street, ,LPE,"Lapeer, MI", , ,2017-11-11T04:06:32,-83.306154,43.04952,-83.3061539997662,43.0495199999795
484,Curbside Bus Stop only (no shelter),BUS,97739,OR,La Pine, ,16515 Reed Road, ,LPN,"La Pine, OR", ,LaPine,2018-09-27T04:05:15,-121.499956,43.674176,-121.499955999774,43.6741760000766
485,Platform with Shelter,TRAIN,93437,CA,Surf, ,Ocean Ave and Park Rd, ,LPS,"Lompoc-Surf, CA", ,Surf,2017-11-06T07:05:15,-120.605001,34.682704,-120.60500099962,34.6827040001948
486,Curbside Bus Stop only (no shelter),BUS,92253,CA,La Quinta, ,78822 Highway 111, ,LQT,"La Quinta, CA", , ,2018-09-26T04:04:59,-116.289964,33.710979,-116.289963999568,33.7109790001746
487,Station Building (with waiting room),TRAIN,66044,KS,Lawrence, ,413 East 7th Street, ,LRC,"Lawrence, KS", , ,2017-11-11T04:06:34,-95.230539,38.971166,-95.23053899956,38.9711660002631
488,Station Building (with waiting room),TRAIN,72201,AR,Little Rock, ,1400 West Markham Street,Union Station,LRK,"Little Rock, AR",Union Station,Union Station,2017-11-06T07:05:15,-92.286785,34.750298,-92.286784999566,34.7502979996763
489,Curbside Bus Stop only (no shelter),BUS,82072,WY,Laramie, ,1952 North Banner Road, ,LRY,"Laramie, WY", , ,2018-09-28T04:04:51,-105.608549,41.32992,-105.608549000032,41.3299200001234
490,Curbside Bus Stop only (no shelter),BUS,17837,PA,Lewisburg, ,500 Market Street, ,LSB,"Lewisburg, PA", ,Bucknell University,2018-09-27T07:04:54,-76.887341,40.963073,-76.8873410002804,40.9630729999753
491,Station Building (with waiting room),TRAIN,54601,WI,La Crosse, ,601 St. Andrew Street,Amtrak Station,LSE,"La Crosse, WI",Amtrak Station, ,2022-03-15T07:04:09,-91.247298,43.833155,-91.2472979998016,43.8331549999829
492,Station Building (with waiting room),TRAIN,87701,NM,Las Vegas, ,500 Railroad Avenue at Lincoln, ,LSV,"Las Vegas, NM", , ,2017-11-11T04:06:35,-105.212779,35.593432,-105.212778999773,35.5934320000191
493,Curbside Bus Stop only (no shelter),BUS,54601,WI,La Crosse, ,521 East Avenue N,University of Wisconsin,LSW,"La Crosse, WI",University of Wisconsin, ,2022-03-16T07:04:11,-91.229332,43.817112,-91.2293320004447,43.8171120002909
494,Curbside Bus Stop only (no shelter),BUS,15650,PA,Latrobe, ,148 Aviation Lane,Arnold Palmer Regional Airport,LTB,"Latrobe, PA",Arnold Palmer Regional Airport, ,2019-02-14T04:03:22,-79.405407,40.272842,-79.4054070002458,40.2728420001479
495,Curbside Bus Stop only (no shelter),BUS,03561,NH,Littleton, ,336 Cottage Street, ,LTL,"Littleton, NH", , ,2018-09-27T04:05:16,-71.76909,44.296787,-71.7690900000303,44.2967870002581
496,Platform with Shelter,TRAIN,95330,CA,Manteca, ,17800 Shideler Parkway, ,LTM,"Lathrop-Manteca, CA", ,Manteca,2018-09-26T07:04:48,-121.263658,37.79836,-121.263658000093,37.7983600002401
497,Curbside Bus Stop only (no shelter),BUS,93543,CA,Littlerock, ,7225 Pearblossom Hwy, ,LTR,"Littlerock, CA", , ,2018-09-26T04:04:59,-118.00058,34.521339,-118.000579999902,34.5213389998222
498,Curbside Bus Stop only (no shelter),BUS,95454,CA,Laytonville, ,44900 Highway 101, ,LTV,"Laytonville, CA", , ,2018-09-26T04:04:59,-123.482019,39.686633,-123.482018999952,39.6866329997892
499,Station Building (with waiting room),BUS,40203,KY,Louisville,Suite 101,1211 West Broadway, ,LVL,"Louisville, KY", , ,2023-09-29T02:05:41,-85.772623,38.248724,-85.7726230003286,38.2487239999191
500,Curbside Bus Stop only (no shelter),BUS,95541,CA,Lee Vining, ,30 Main Street, ,LVN,"Lee Vining, CA", , ,2018-02-18T04:04:49,-119.118687,37.955403,-119.11868699997,37.955403000097
501,Curbside Bus Stop only (no shelter),BUS,17045,PA,Liverpool, ,U.S. Highway 11/15 & State Highway 104,Park & Ride Lot,LVP,"Liverpool, PA",Park & Ride Lot, ,2024-04-17T09:58:04,-76.95427,40.620141,-76.9542700002867,40.6201410001661
502,Curbside Bus Stop only (no shelter),BUS,17045,PA,Liverpool, ,1412 Susquehanna Trail,Lowes restaurant,LVR,"Liverpool, PA",Lowes restaurant, ,2019-02-14T07:03:22,-76.994126,40.56632,-76.9941260000616,40.5663200001495
503,Curbside Bus Stop only (no shelter),BUS,89101,NV,Las Vegas, ,624 South 1st Street, ,LVS,"Las Vegas, NV", , ,2021-03-23T07:03:54,-115.149734,36.164458,-115.149734000351,36.1644580000991
504,Curbside Bus Stop only (no shelter),BUS,89119,NV,Las Vegas, ,6675 Gilespie Street,South Strip Transfer Terminal,LVT,"Las Vegas, NV",South Strip Transfer Terminal, ,2021-12-02T07:04:36,-115.163629,36.068464,-115.16362900013,36.0684640003531
505,Station Building (with waiting room),TRAIN,75602,TX,Longview, ,905 Pacific Avenue, ,LVW,"Longview, TX", , ,2017-11-11T04:06:37,-94.728322,32.494032,-94.7283219996294,32.4940319996575
506,Platform with Shelter,TRAIN,98826,WA,Leavenworth, ,11645 North Road ,Icicle Station,LWA,"Leavenworth, WA",Icicle Station, ,2019-02-14T04:03:24,-120.643965,47.606493,-120.643965000166,47.6064930001567
